"시설종류",대상시설명,소재지도로명주소,소재지지번주소,위도,경도,관리기관명,관할경찰서명,CCTV설치여부,CCTV설치대수,보호구역도로폭,데이터기준일자
"초등학교",선단초교,경기도 포천시 삼육사로2111번길 29,경기도 포천시 선단동 765-1,37.8615058,127.1555934,경기도 포천시청,포천경찰서,Y,9,7,2019-09-09
"초등학교",신북초교,경기도 포천시 신북면 청신로 2079-19,경기도 포천시 신북면 신평리 361-3,37.938645,127.219866,경기도 포천시청,포천경찰서,Y,8,7,2019-09-09
"초등학교",외북초교,경기도 포천시 신북면 포천로 2199,경기도 포천시 신북면 계류리 54-3,37.9469096,127.187471,경기도 포천시청,포천경찰서,Y,4,7,2019-09-09
"초등학교",운담초교,경기도 포천시 일동면 화동로 1239,경기도 포천시 일동면 화대리 608-2,37.971814,127.329236,경기도 포천시청,포천경찰서,Y,4,7,2019-09-09
"초등학교",유암초교,경기도 포천시 가산면 유교로88번길 8,경기도 포천시 가산면 감암리 503-1,37.868562,127.192148,경기도 포천시청,포천경찰서,Y,5,7,2019-09-09
"초등학교",축석초교,경기도 포천시 소흘읍 무란1길 25,경기도 포천시 소흘읍 이동교리 645,37.7882195,127.121804,경기도 포천시청,포천경찰서,Y,2,13,2019-09-09
"초등학교",관인초교,경기도 포천시 관인면 관인로 5,경기도 포천시 관인면 탄동리 664-1,38.156738,127.250137,경기도 포천시청,포천경찰서,Y,4,13,2019-09-09
"초등학교",금주초교,경기도 포천시 영중면 궁들길 50,경기도 포천시 영중면 금주리 522-1,37.973461,127.260566,경기도 포천시청,포천경찰서,Y,5,6,2019-09-09
"초등학교",내촌초교,경기도 포천시 내촌면 내촌로 88,경기도 포천시 내촌면 내리 334-5,37.7870015035,127.2297119960,경기도 포천시청,포천경찰서,Y,4,7,2019-09-09
"초등학교",노곡초교,경기도 포천시 이동면 성장로869번길 4,경기도 포천시 이동면 노곡리 846-6,38.0082198,127.335331,경기도 포천시청,포천경찰서,Y,7,7,2019-09-09
"초등학교",도평초교,경기도 포천시 이동면 도리돌길 21,경기도 포천시 이동면 도평리 356-1,38.056361,127.380743,경기도 포천시청,포천경찰서,Y,4,6,2019-09-09
"초등학교",송우초교,경기도 포천시 소흘읍 송우로 42,경기도 포천시 소흘읍 송우리 214,37.829582,127.143622,경기도 포천시청,포천경찰서,Y,4,13,2019-09-09
"초등학교",영북초교,경기도 포천시 영북면 영북로148번길 46,경기도 포천시 영북면 운천리 342-2,38.090344,127.276227,경기도 포천시청,포천경찰서,Y,1,21,2019-09-09
"초등학교",가산초교,경기도 포천시 가산면 가산로309번길 25,경기도 포천시 가산면 마산리 406,37.847856,127.1852303,경기도 포천시청,포천경찰서,Y,13,6,2019-09-09
"초등학교",화현초교,경기도 포천시 화현면 달인동로1길 29,경기도 포천시 화현면 화현리 847-1,37.9018183865,127.2843494718,경기도 포천시청,포천경찰서,Y,4,7,2019-09-09
"초등학교",영중초교,경기도 포천시 영중면 호국로 3054,경기도 포천시 영중면 성동리 891-3,38.0151101,127.248478,경기도 포천시청,포천경찰서,Y,1,13,2019-09-09
"초등학교",영평초교,경기도 포천시 영중면 전영로1429번길 13-11,경기도 포천시 영중면 영평리 240,38.0157123672,127.2177608381,경기도 포천시청,포천경찰서,Y,5,7,2019-09-09
"초등학교",이곡초교,경기도 포천시 소흘읍 이곡길 5,경기도 포천시 소흘읍 이곡리 197,37.778369,127.148675,경기도 포천시청,포천경찰서,Y,6,7,2019-09-09
"초등학교",이동초교,경기도 포천시 이동면 화동로 2034,경기도 포천시 이동면 장암리 252-3,38.0299793482,127.3681909282,경기도 포천시청,포천경찰서,Y,6,7,2019-09-09
"초등학교",일동초교,경기도 포천시 일동면 화동로 1019,경기도 포천시 일동면 기산리 281-1,37.955146,127.314455,경기도 포천시청,포천경찰서,Y,7,13,2019-09-09
"초등학교",정교초교,경기도 포천시 가산면 정금로 77,경기도 포천시 가산면 정교리 549-2,37.815647,127.169813,경기도 포천시청,포천경찰서,Y,2,7,2019-09-09
"초등학교",중리초교,경기도 포천시 관인면 한탄강2로 125-32,경기도 포천시 관인면 중리 209-2,38.10522996,127.204435571,경기도 포천시청,포천경찰서,Y,4,7,2019-09-09
"초등학교",지현초교,경기도 포천시 화현면 봉화로 926-9,경기도 포천시 화현면 지현리 279-6,37.9289700,127.265177,경기도 포천시청,포천경찰서,Y,4,7,2019-09-09
"초등학교",창수초교,경기도 포천시 창수면 옥수로58번길 4,경기도 포천시 창수면 추동리 117-2,37.990024,127.181964,경기도 포천시청,포천경찰서,Y,1,7,2019-09-09
"초등학교",청성초교,경기도 포천시 군내면 솔밭길 12-1,경기도 포천시 군내면 직두리 740,37.874963,127.223503,경기도 포천시청,포천경찰서,Y,5,7,2019-09-09
"초등학교",추산초교,경기도 포천시 소흘읍 솔모루로3번길 52-20,경기도 포천시 소흘읍 송우리 728-11,37.826149,127.137104,경기도 포천시청,포천경찰서,Y,3,7,2019-09-09
"초등학교",포천삼정초교,경기도 포천시 신북면 청신로947번길 17,경기도 포천시 신북면 삼정리 405-1,37.964007,127.131455,경기도 포천시청,포천경찰서,Y,4,7,2019-09-09
"초등학교",포천초교,경기도 포천시 신읍길 40,경기도 포천시 신읍동 133,37.896964,127.197366,경기도 포천시청,포천경찰서,Y,6,13,2019-09-09
"초등학교",왕방초교,경기도 포천시 신북면 학동로 52,경기도 포천시 신북면 가채리 819-15,37.9042234317,127.201663248,경기도 포천시청,포천경찰서,Y,5,13,2019-09-09
"초등학교",신봉초교,경기도 포천시 소흘읍 송우로 98,경기도 포천시 소흘읍 송우리 727-4,37.832097,127.139255,경기도 포천시청,포천경찰서,Y,5,13,2019-09-09
"초등학교",태봉초교,경기도 포천시 소흘읍 송선로 8,경기도 포천시 소흘읍 송우리 725-4,37.834405,127.1449997,경기도 포천시청,포천경찰서,Y,4,13,2019-09-09
"어린이집",공룡나라어린이집,경기도 포천시 호병로1길 15,경기도 포천시 신읍동 116-19,37.894805,127.194604,경기도 포천시청,포천경찰서,Y,4,6,2019-09-09
"유치원",동심유치원,경기도 포천시 송선로 268-10,경기도 포천시 선단동 857-1,37.855975,127.151358,경기도 포천시청,포천경찰서,Y,4,7,2019-09-09
"어린이집",설운몬테소리어린이집,경기도 포천시 송선로 203,경기도 포천시 설운동 154-3,37.850465,127.149831,경기도 포천시청,포천경찰서,Y,3,7,2019-09-09
"유치원",세화유치원,경기도 포천시 소흘읍 솔모루로3번길 52-36,경기도 포천시 소흘읍 송우리 392-13,37.8267798228,127.1377894389,경기도 포천시청,포천경찰서,Y,3,7,2019-09-09
"어린이집",자연과동화어린이집,경기도 포천시 영중면 사은다리길 50-6,경기도 포천시 영중면 양문리 857-5,38.006192,127.2411301,경기도 포천시청,포천경찰서,Y,4,7,2019-09-09
"어린이집",파란나라어린이집,경기도 포천시 일동면 사리재5길 5,경기도 포천시 일동면 기산리 76-15,37.955889,127.322367,경기도 포천시청,포천경찰서,Y,8,6,2019-09-09
"어린이집",송우어린이집,경기도 포천시 소흘읍 솔모루로81번길 33,경기도 포천시 소흘읍 송우리 222-66,37.831112,127.146369,경기도 포천시청,포천경찰서,Y,4,6,2019-09-09
"어린이집",창수어린이집,경기도 포천시 창수면 옥수로 443-1,경기도 포천시 창수면 오가리 767-13,38.018825,127.1817924707,경기도 포천시청,포천경찰서,Y,5,6,2019-09-09
"어린이집",양문어린이집,경기도 포천시 영중면 양문로5길 18,경기도 포천시 영중면 양문리 806,38.001421,127.2404801,경기도 포천시청,포천경찰서,Y,4,6,2019-09-09
"어린이집",시립영북꿈나무어린이집,경기도 포천시 영북면 영북로133번길 22,경기도 포천시 영북면 운천리 545-3,38.087017,127.272719,경기도 포천시청,포천경찰서,Y,4,5,2019-09-09
"어린이집",시립일동어린이집,경기도 포천시 일동면 화동로1067번길 12,경기도 포천시 일동면 기산리 91-44,37.959076,127.317286,경기도 포천시청,포천경찰서,Y,3,7,2019-09-09
"어린이집",호산나어린이집,경기도 포천시 원앙로 78,경기도 포천시 신읍동 210-42,37.902672,127.205658,경기도 포천시청,포천경찰서,Y,3,7,2019-09-09
"어린이집",글사랑어린이집,경기도 포천시 소흘읍 송우로132번길 9,경기도 포천시 소흘읍 송우리 572-25,37.833405,127.135508,경기도 포천시청,포천경찰서,Y,4,6,2019-09-09
"어린이집",에셀어린이집,경기도 포천시 소흘읍 호국로 511-20,경기도 포천시 소흘읍 이동교리 146-7,37.8188290,127.1356193,경기도 포천시청,포천경찰서,Y,3,6,2019-09-09
"어린이집",신북어린이집,경기도 포천시 신북면 청신로 2141,경기도 포천시 신북면 기지리 971-27,37.9348109,127.2267493,경기도 포천시청,포천경찰서,Y,4,6,2019-09-09
"어린이집",쟈니어린이집,경기도 포천시 왕방로252번길 8,경기도 포천시 신읍동 220,37.901675,127.202601,경기도 포천시청,포천경찰서,Y,3,6,2019-09-09
"어린이집",몬테소리어린이집,경기도 포천시 영북면 운천안길 19,경기도 포천시 영북면 운천리 511-14,38.088955,127.273726,경기도 포천시청,포천경찰서,Y,4,6,2019-09-09
"어린이집",예그린어린이집,경기도 포천시 영북면 운천로 27-14,경기도 포천시 영북면 운천리 516-25,38.090595,127.271329,경기도 포천시청,포천경찰서,Y,5,6,2019-09-09
"어린이집",내촌꿈나무어린이집,경기도 포천시 내촌면 내촌로 111,경기도 포천시 내촌면 내리 325,37.788959,127.229808,경기도 포천시청,포천경찰서,Y,3,7,2019-09-09
"어린이집",꼬마등대어린이집,경기도 포천시 군내면 청성로 139,경기도 포천시 군내면 하성북리 646,37.893706,127.210601,경기도 포천시청,포천경찰서,Y,4,6,2019-09-09
"유치원",늘푸른유치원,경기도 포천시 군내면 청군로 3403,경기도 포천시 군내면 구읍리 574-3,37.892632,127.206457,경기도 포천시청,포천경찰서,Y,3,13,2019-09-09
"어린이집",별님이꿈꾸는마을어린이집,경기도 포천시 이동면 화동로 1901,경기도 포천시 이동면 연곡리 872-14,38.018122,127.369027,경기도 포천시청,포천경찰서,Y,3,6,2019-09-09
"어린이집",가산어린이집,경기도 포천시 가산면 선마로 223,경기도 포천시 가산면 마산리 601-1,37.848403,127.186356,경기도 포천시청,포천경찰서,N,0,6,2019-09-09
"어린이집",관인어린이집,경기도 포천시 관인면 창동로1867번길 23,경기도 포천시 관인면 탄동리 1000,38.158881,127.252210415,경기도 포천시청,포천경찰서,Y,3,6,2019-09-09
"어린이집",군내어린이집,경기도 포천시 군내면 좌의길 135,경기도 포천시 군내면 좌의리 305-5,37.8582232,127.2158790,경기도 포천시청,포천경찰서,Y,2,6,2019-09-09
"어린이집",미래클어린이집,경기도 포천시 이동면 화동로2076번길 75-1,경기도 포천시 이동면 장암리 203-2,38.0335374669,127.374628393,경기도 포천시청,포천경찰서,Y,3,6,2019-09-09
"어린이집",반월어린이집,경기도 포천시 군내면 청성로 111,경기도 포천시 군내면 하성북리 610,37.8955697,127.2119504,경기도 포천시청,포천경찰서,Y,3,13,2019-09-09
"어린이집",신포천어린이집,경기도 포천시 포천로1624번길 24,경기도 포천시 신읍동 229-1,37.903108,127.2010464385,경기도 포천시청,포천경찰서,Y,2,6,2019-09-09
"어린이집",원암어린이집,경기도 포천시 소흘읍 송선로 67,경기도 포천시 소흘읍 송우리 290-4,37.8392073457,127.145462,경기도 포천시청,포천경찰서,Y,3,13,2019-09-09
"어린이집",포천어린이집,경기도 포천시 중앙로105번길 31-1,경기도 포천시 신읍동 135-17,37.8965161115,127.1988681006,경기도 포천시청,포천경찰서,Y,4,6,2019-09-09
"어린이집",화현어린이집,경기도 포천시 화현면 달인동로1길 55,경기도 포천시 화현면 화현리 874-31,37.901176,127.287892,경기도 포천시청,포천경찰서,Y,3,6,2019-09-09
"어린이집",JY유아스쿨어린이집,경기도 포천시 원모루로2길 58,경기도 포천시 신읍동 112-25,37.894573,127.196414,경기도 포천시청,포천경찰서,Y,5,7,2019-09-09
"어린이집",샤론어린이집,경기도 포천시 신북면 중앙로207번길 30,경기도 포천시 신북면 가채리 768-7,37.9054486162,127.205882851,경기도 포천시청,포천경찰서,Y,4,7,2019-09-09
"어린이집",예원노블키즈어린이집,경기도 포천시 호병골길 87,경기도 포천시 신읍동 515,37.897232,127.185585,경기도 포천시청,포천경찰서,Y,3,6,2019-09-09
"어린이집",햇님어린이집,경기도 포천시 어룡길 39,경기도 포천시 어룡동 257-1,37.883548,127.184169,경기도 포천시청,포천경찰서,Y,3,5,2019-09-09
"어린이집",포천시청어린이집,경기도 포천시 신읍길 15,경기도 포천시 신읍동 57-3,37.8952704,127.199904,경기도 포천시청,포천경찰서,Y,5,5,2019-09-09
"어린이집",은혜어린이집,경기도 포천시 영북면 영북로 114번길 17,경기도 포천시 영북면 운천리 324,38.084771,127.276905,경기도 포천시청,포천경찰서,Y,1,5,2019-09-09
"어린이집",올리어린이집,경기도 포천시 소흘읍 태봉로63번길 13,경기도 포천시 소흘읍 이동교리 183,37.8237280,127.1359041,경기도 포천시청,포천경찰서,Y,1,5,2019-09-09
"어린이집",꽃향기어린이집,경기도 포천시 소흘읍 화합로264번길 73,경기도 포천시 소흘읍 송우리 593-4,37.836709,127.1367641,경기도 포천시청,포천경찰서,Y,4,5,2019-09-09
"어린이집",아이해뜰어린이집,경기도 포천시 소흘읍 죽엽산로101번길 4-1,경기도 포천시 소흘읍 이가팔리 546-3,37.822311,127.158112,경기도 포천시청,포천경찰서,Y,4,7,2019-09-09
"어린이집",일동예일어린이집,경기도 포천시 일동면 사리재길 14,경기도 포천시 일동면 기산리 81-19,37.9582555,127.3196331,경기도 포천시청,포천경찰서,N,0,6,2019-09-09
"어린이집",선단꿈나무어린이집,경기도 포천시 선단동 삼육사로2186번길 11-13,경기도 포천시 선단동 629,37.8536782,127.1591565,경기도 포천시청,포천경찰서,N,0,6,2019-09-09
