"시설종류",대상시설명,소재지도로명주소,소재지지번주소,위도,경도,관리기관명,관할경찰서명,CCTV설치여부,CCTV설치대수,보호구역도로폭,데이터기준일자
"초등학교",벌말초등학교,경기도 화성시 떡전골로 34,경기도 화성시 병점동 415-2번지,37.202677,127.037845,화성시청,화성동부경찰서,Y,,14.5,2019-04-03
"초등학교",송화초등학교,경기도 화성시 병점중앙로35번길 42,경기도 화성시 병점동 465-5번지,37.227626,127.032907,화성시청,화성동부경찰서,Y,,16,2019-04-03
"초등학교",태안초등학교,경기도 화성시 병점3로 77,경기도 화성시 병점동 824번지,37.223871,127.041655,화성시청,화성동부경찰서,Y,,12,2019-04-03
"초등학교",구봉초등학교,경기도 화성시 병점1로 105,경기도 화성시 병점동 862번지,37.205725,127.045425,화성시청,화성동부경찰서,Y,,8.5,2019-04-03
"초등학교",안화초등학교,경기도 화성시 병점3로 132-5,경기도 화성시 병점동 851번지,37.213113,127.046405,화성시청,화성동부경찰서,Y,,22,2019-04-03
"초등학교",병점초등학교,경기도 화성시 경기대로 1052,경기도 화성시 진안동 517-2번지,37.210361,127.034596,화성시청,화성동부경찰서,Y,,23,2019-04-03
"초등학교",진안초등학교,경기도 화성시 병점4로 97,경기도 화성시 진안동 915번지,37.217151,127.040615,화성시청,화성동부경찰서,Y,,13,2019-04-03
"초등학교",기산초등학교,경기도 화성시 동탄지성로 344,경기도 화성시 반월동 705-4번지,37.224895,127.050734,화성시청,화성동부경찰서,Y,,15,2019-04-03
"초등학교",율목초등학교,경기도 화성시 영통로50번길 19,경기도 화성시 반월동 879번지,37.236814,127.064405,화성시청,화성동부경찰서,Y,,10,2019-04-03
"초등학교",동학초등학교,경기도 화성시 영통로27번길 46,경기도 화성시 반월동 165-2번지,37.233252,127.059559,화성시청,화성동부경찰서,Y,,14,2019-04-03
"초등학교",화산초등학교,경기도 화성시 화산중앙로64번길 17,경기도 화성시 송산동 146-9번지,37.215871,127.013041,화성시청,화성동부경찰서,Y,,8.5,2019-04-03
"초등학교",배양초등학교,경기도 화성시 융건로 90,경기도 화성시 배양동 76번지,37.219075,126.988386,화성시청,화성동부경찰서,Y,,7.5,2019-04-03
"초등학교",기안초등학교,경기도 화성시 기안길 18,경기도 화성시 기안동 226번지,37.225256,126.982052,화성시청,화성동부경찰서,Y,,7,2019-04-03
"초등학교",화성반월초등학교,경기도 화성시 효행로 1281-23,경기도 화성시 반월동 947번지,37.233903,127.058906,화성시청,화성동부경찰서,Y,,17,2019-04-03
"초등학교",숲속초등학교,경기도 화성시 동탄공원로2길 10,경기도 화성시 반송동 56번지,37.206291,127.059807,화성시청,화성동부경찰서,Y,,19,2019-04-03
"초등학교",한마음초등학교,경기도 화성시 동탄숲속로 69-6,경기도 화성시 능동 1117번지,37.208798,127.056465,화성시청,화성동부경찰서,Y,,11,2019-04-03
"초등학교",능동초등학교,경기도 화성시 동탄원천로 315-27,경기도 화성시 능동 1085번지,37.212976,127.057868,화성시청,화성동부경찰서,Y,,11,2019-04-03
"초등학교",푸른초등학교,경기도 화성시 동탄공원로 21-38,경기도 화성시 능동 1136번지,37.202307,127.054663,화성시청,화성동부경찰서,Y,,8,2019-04-03
"초등학교",금곡초등학교,경기도 화성시 동탄문화센터로 13,경기도 화성시 반송동 78번지,37.203634,127.066725,화성시청,화성동부경찰서,Y,,29,2019-04-03
"초등학교",솔빛초등학교,경기도 화성시 동탄반석로 84,경기도 화성시 반송동 133번지,37.196314,127.073139,화성시청,화성동부경찰서,N,,15,2019-04-03
"초등학교",반석초등학교,경기도 화성시 동탄반석로 22,경기도 화성시 반송동 223번지,37.193664,127.078504,화성시청,화성동부경찰서,Y,,11,2019-04-03
"초등학교",반송초등학교,경기도 화성시 동탄솔빛로 14,경기도 화성시 반송동 199번지,37.191546,127.070505,화성시청,화성동부경찰서,Y,,17.5,2019-04-03
"초등학교",학동초등학교,경기도 화성시 동탄지성로 79-17,경기도 화성시 반송동 81번지,37.205377,127.066235,화성시청,화성동부경찰서,Y,,7,2019-04-03
"초등학교",석우초등학교,경기도 화성시 동탄시범한빛길 32,경기도 화성시 반송동 20번지,37.209145,127.068148,화성시청,화성동부경찰서,Y,,11,2019-04-03
"초등학교",예당초등학교,경기도 화성시 동탄반석로 245,경기도 화성시 석우동 54번지,37.210227,127.075462,화성시청,화성동부경찰서,Y,,15,2019-04-03
"초등학교",예원초등학교,경기도 화성시 동탄반석로 259,경기도 화성시 석우동 52번지,37.210807,127.076508,화성시청,화성동부경찰서,Y,,15,2019-04-03
"초등학교",정림초등학교,경기도 화성시 정남면 망월길 69,경기도 화성시 정남면 망월리 329-1번지,37.181431,126.999831,화성시청,화성동부경찰서,Y,,8,2019-04-03
"초등학교",정남초등학교,경기도 화성시 정남면 만년로 516,경기도 화성시 정남면 발산리 409-1번지,37.167877,126.984005,화성시청,화성동부경찰서,Y,,13,2019-04-03
"초등학교",안녕초등학교,경기도 화성시 화산로 2,경기도 화성시 안녕동 50-8번지,37.206038,127.008803,화성시청,화성동부경찰서,Y,,42,2019-04-03
"어린이집",나래어린이집,경기도 화성시 정남면 만년로 539-28,경기도 화성시 정남면 괘랑리 1058-1번지,37.170821,126.981539,화성시청,화성동부경찰서,Y,,9,2019-04-03
"유치원",예원유치원,경기도 화성시 동탄숲속로35번길 26-14,경기도 화성시 능동 479번지,37.217489,127.050566,화성시청,화성동부경찰서,N,,7,2019-04-03
"유치원",한빛유치원,경기도 화성시 병점중앙로35번길 5,경기도 화성시 병점동 455-11번지,37.265742,127.052986,화성시청,화성동부경찰서,Y,,20,2019-04-03
"어린이집",재크와콩나무어린이집,경기도 화성시 병점동로42번길 13-2,경기도 화성시 병점동 132-4번지,37.219093,127.044172,화성시청,화성동부경찰서,N,,5,2019-04-03
"유치원",동탄꿈의유치원,경기도 화성시 노작로4길 5-4,경기도 화성시 반송동 120-6번지,37.197214,127.077302,화성시청,화성동부경찰서,Y,,9,2019-04-03
"유치원",오즈의마법사유치원,경기도 화성시 금반1길 14-17,경기도 화성시 반송동 175-1번지,37.203661,127.070931,화성시청,화성동부경찰서,Y,,11,2019-04-03
"유치원",해오름유치원,경기도 화성시 영통로27번길 19,경기도 화성시 반월동 871-2번지,37.232706,127.062341,화성시청,화성동부경찰서,Y,,12,2019-04-03
"유치원",경기유치원,경기도 화성시 한신대길 65-33,경기도 화성시 안녕동 1-21번지,37.210235,127.025912,화성시청,화성동부경찰서,Y,,18,2019-04-03
"유치원",세광유치원,경기도 화성시 병점중앙로211번길 42,경기도 화성시 진안동 562-1번지,37.213266,127.0632311,화성시청,화성동부경찰서,Y,,8,2019-04-03
"유치원",늘푸른유치원,경기도 화성시 배양북길32번길 18-11,경기도 화성시 배양동 19-260번지,37.223448,126.995363,화성시청,화성동부경찰서,Y,,5.5,2019-04-03
"유치원",참유치원,경기도 화성시 병점2로 45,경기도 화성시 병점동 813번지,37.207094,127.041512,화성시청,화성동부경찰서,Y,,10,2019-04-03
"유치원",예일유치원,경기도 화성시 기안남로 21,경기도 화성시 기안동 908번지,37.223398,126.985913,화성시청,화성동부경찰서,Y,,10,2019-04-03
"유치원",전원유치원,경기도 화성시 정남면 덕절중앙길 85-2,경기도 화성시 정남면 덕절리 132-1번지,37.139672,127.027586,화성시청,화성동부경찰서,Y,,9,2019-04-03
"유치원",자연유치원,경기도 화성시 영통로61번길 30-30,경기도 화성시 반월동 865-3번지,37.233493,127.057441,화성시청,화성동부경찰서,Y,,10,2019-04-03
"유치원",은아유치원,경기도 화성시 작현길 8-17,경기도 화성시 송산동 98-1번지,37.206951,127.018698,화성시청,화성동부경찰서,Y,,6,2019-04-03
"유치원",동탄이화유치원,경기도 화성시 동탄숲속로35번길 2-9,경기도 화성시 능동 540-5번지,37.208794,127.052365,화성시청,화성동부경찰서,N,,17,2019-04-03
"유치원",다일유치원,경기도 화성시 병점중앙로242번길 15-5,경기도 화성시 진안동 921번지,37.219297,127.063618,화성시청,화성동부경찰서,Y,,10,2019-04-03
"유치원",동탄프라임유치원,경기도 화성시 동탄공원로2길 7,경기도 화성시 반송동 55번지,37.206379,127.060499,화성시청,화성동부경찰서,Y,,19,2019-04-03
"유치원",동그라미유치원,경기도 화성시 효행로265번길 42,경기도 화성시 기안동 363-2번지,37.224999,126.975578,화성시청,화성동부경찰서,Y,,4,2019-04-03
"유치원",나인유치원,경기도 화성시 여울로 115,경기도 화성시 능동 528-8번지,37.207701,127.057635,화성시청,화성동부경찰서,Y,,17,2019-04-03
"유치원",동실유치원,경기도 화성시 병점동로 45-3,경기도 화성시 병점동 259-8번지,37.208645,127.043123,화성시청,화성동부경찰서,Y,,14,2019-04-03
"유치원",다솜유치원,경기도 화성시 기배로30번길 23,경기도 화성시 기안동 456-33번지,37.219276,126.978756,화성시청,화성동부경찰서,Y,,4,2019-04-03
"어린이집",동탄푸른어린이집,경기도 화성시 10용사로 358,경기도 화성시 능동 976-2번지,37.199622,127.055827,화성시청,화성동부경찰서,Y,,26,2019-04-03
"유치원",반디유치원,경기도 화성시 병점4로 126,경기도 화성시 진안동 912-2번지,37.217463,127.043813,화성시청,화성동부경찰서,Y,,20,2019-04-03
"어린이집",아해뜰어린이집,경기도 화성시 안녕북길 27,경기도 화성시 안녕동 180-93번지,37.236835,126.986896,화성시청,화성동부경찰서,N,,11,2019-04-03
"어린이집",병점뉴질랜드어린이집,경기도 화성시 병점로 18-1,경기도 화성시 병점동 346-8번지,37.209248,127.037171,화성시청,화성동부경찰서,N,,8,2019-04-03
"어린이집",시립숲속어린이집,경기도 화성시 동탄숲속로 69-30,경기도 화성시 능동 1118번지,37.209347,127.055734,화성시청,화성동부경찰서,N,,8,2019-04-03
"어린이집",병점뉴질랜드어린이집,경기도 화성시 병점로 18-1,경기도 화성시 병점동 346-8번지,37.2091938922,127.0371171073,화성시청,화성동부경찰서,Y,,10,2019-04-03
"초등학교",정현초등학교,경기도 화성시 동탄산척로 122,경기도 화성시 산척동 산126번지,37.1712229622,127.1129109914,화성시청,화성동부경찰서,N,,10~25,2019-04-03
"초등학교",한율초등학교,경기도 화성시 동탄순환대로 429-10,경기도 화성시 목동 222-1번지,37.1864679760,127.1228322918,화성시청,화성동부경찰서,N,,10~34,2019-04-03
"초등학교",동탄중앙초등학교,경기도 화성시 동탄대로시범길 117,경기도 화성시 청계동 529번지,37.1990217428,127.1111040655,화성시청,화성동부경찰서,Y,,20,2019-04-03
"초등학교",아인초등학교,경기도 화성시 동탄대로시범길 219,경기도 화성시 청계동 515번지,37.2007207820,127.1053843806,화성시청,화성동부경찰서,Y,,25,2019-04-03
"유치원",청계유치원,경기도 화성시 동탄대로시범길 199,경기도 화성시 청계동 531-5번지,37.2011329697,127.1079981992,화성시청,화성동부경찰서,Y,,25,2019-04-03
"초등학교",화성청계초등학교,경기도 화성시 동탄대로시범길 39,경기도 화성시 청계동 518번지,37.1991108277,127.1019692855,화성시청,화성동부경찰서,N,,16,2019-04-03
"초등학교",청목초등학교,경기도 화성시 동탄순환대로21길 10,경기도 화성시 청계동 539번지,37.1955284374,127.1177781718,화성시청,화성동부경찰서,Y,,18,2019-04-03
"초등학교",예솔초등학교,경기도 화성시 동탄순환대로22길 13,경기도 화성시 청계동 553번지,37.1962747040,127.1194124861,화성시청,화성동부경찰서,Y,,20,2019-04-03
"초등학교",한백초등학교,경기도 화성시 동탄순환대로26길 37,경기도 화성시 영천동 715번지,37.2080828276,127.1147218305,화성시청,화성동부경찰서,Y,,6~10,2019-04-03
"유치원",무봉유치원,경기도 화성시 동탄치동천로3길 9-7,경기도 화성시 영천동 741-4번지,37.2037219836,127.1237156851,화성시청,화성동부경찰서,Y,,10,2019-04-03
"유치원",영천유치원,경기도 화성시 동탄순환대로29길 46,경기도 화성시 영천동 674번지,37.2049179438,127.1073050411,화성시청,화성동부경찰서,Y,,12.5,2019-04-03
"초등학교",동탄초등학교,경기도 화성시 동부대로970번길 31,경기도 화성시 오산동 663-2번지,37.1887755741,127.0909751146,화성시청,화성동부경찰서,Y,,18,2019-04-03
"유치원",동탄유치원,경기도 화성시 동탄기흥로353번길 17,경기도 화성시 오산동 610-3번지,37.1912176674,127.0906062857,화성시청,화성동부경찰서,N,,22,2019-04-03
"초등학교",영천초등학교,경기도 화성시 동탄영천로 36,경기도 화성시 영천동 671번지,37.2055242705,127.1042756693,화성시청,화성동부경찰서,Y,,18,2019-04-03
"어린이집",동탄산단해솔어린이집,경기도 화성시 동탄산단6길 12,경기도 화성시 방교동 857번지,37.1682793993,127.0874947534,화성시청,화성동부경찰서,N,,11,2019-04-03
"유치원",솔빛유치원,경기도 화성시 동탄중앙로 122,경기도 화성시 반송동 139-3번지,37.1962496994,127.0703944214,화성시청,화성동부경찰서,N,,,2019-04-03
"초등학교",무봉초등학교,경기도 화성시 동탄청계로 303-34,경기도 화성시 청계동 549번지,37.2028276360,127.1169669389,화성시청,화성동부경찰서,Y,,20.5~31.5,2019-04-03
"초등학교",방교초등학교,경기도 화성시 동탄산척로1길 11,경기도 화성시 송동 681-586번지,37.1728905349,127.1019688210,화성시청,화성동부경찰서,N,,10,2019-04-03
"초등학교",서연초등학교,경기도 화성시 동탄대로4가길 25,경기도 화성시 장지동 산22-1번지,37.1601119484,127.1141332645,화성시청,화성동부경찰서,N,,25~30,2019-04-03
"초등학교",왕배초등학교,경기도 화성시 동탄대로12길 101,경기도 화성시 목동 445-49번지,37.1801070619,127.1131040486,화성시청,화성동부경찰서,N,,10,2019-04-03
"초등학교",치동초등학교,경기도 화성시 동탄순환대로 881-34,경기도 화성시 영천동 321-35번지,37.2065796159,127.0916378991,화성시청,화성동부경찰서,N,,8~34,2019-04-03
"초등학교",다원초등학교,경기도 화성시 동탄대로24길 112,경기도 화성시 영천동 651-1381번지,37.2125284787,127.1109093015,화성시청,화성동부경찰서,N,,10,2019-04-03
"특수학교",화성나래학교,경기도 화성시 동탄대로10길 11,경기도 화성시 산척동 산155번지,37.1766703867,127.1072436355,화성시청,화성동부경찰서,N,,6~44,2019-04-03
"초등학교",청림초등학교,경기도 화성시 동탄산척로 93-22,경기도 화성시 산척동 산15번지,37.1745310941,127.1114970141,화성시청,화성동부경찰서,Y,,10,2019-04-03
"초등학교",동탄목동초등학교,,경기도 화성시 목동 136-1,37.1892234913,127.1244696810,화성시청,화성동부경찰서,Y,,10,2019-04-03
"초등학교",해운초등학교,경기도 화성시 서신면 궁평항로 1374-6,경기도 화성시 서신면 궁평리 162-4번지,37.230737,126.699251,화성시청,화성서부경찰서,Y,,25,2019-04-03
"초등학교",서신초등학교,경기도 화성시 서신면 매화3길 17,경기도 화성시 서신면 매화리 333번지,37.171235,126.707669,화성시청,화성서부경찰서,Y,,28,2019-04-03
"초등학교",서신초제부분교,경기도 화성시 서신면 제부말길 74,경기도 화성시 서신면 제부리 23-1번지,37.171235,126.707669,화성시청,화성서부경찰서,Y,,3,2019-04-03
"초등학교",마산초등학교,경기도 화성시 송산면 송산포도로 582,경기도 화성시 송산면 마산리 326-3번지,37.231276,126.692343,화성시청,화성서부경찰서,Y,,8,2019-04-03
"초등학교",고정초등학교,경기도 화성시 송산면 공룡로 326,경기도 화성시 송산면 고정리 1103번지,37.238431,126.738377,화성시청,화성서부경찰서,Y,,8,2019-04-03
"초등학교",송산초등학교,경기도 화성시 송산면 사강시장길 15-9,경기도 화성시 송산면 사강리 701번지,37.231792,126.730832,화성시청,화성서부경찰서,Y,,4,2019-04-03
"초등학교",청원초등학교,경기도 화성시 마도면 해운로 794,경기도 화성시 마도면 청원리 228-4번지,37.203755,126.774062,화성시청,화성서부경찰서,N,,11,2019-04-03
"초등학교",마도초등학교,경기도 화성시 마도면 석교로 157,경기도 화성시 마도면 석교리 248번지,37.206577,126.822092,화성시청,화성서부경찰서,Y,,7,2019-04-03
"초등학교",동양초등학교,경기도 화성시 남양읍 시청로45번길 11,경기도 화성시 남양읍 남양리 1652번지,37.206471,126.822041,화성시청,화성서부경찰서,Y,,5,2019-04-03
"초등학교",남양초등학교,경기도 화성시 남양읍 남양시장로55번길 7,경기도 화성시 남양읍 남양리 650-1번지,37.210547,126.815501,화성시청,화성서부경찰서,Y,,13,2019-04-03
"초등학교",활초초등학교,경기도 화성시 남양읍 안석길111번길 106,경기도 화성시 남양읍 안석리 232-1번지,37.179452,126.825985,화성시청,화성서부경찰서,Y,,5,2019-04-03
"초등학교",청룡초등학교,경기도 화성시 비봉면 주석로 610,경기도 화성시 비봉면 청요리 571번지,37.253381,126.882501,화성시청,화성서부경찰서,Y,,10,2019-04-03
"초등학교",비봉초등학교,경기도 화성시 비봉면 양노로 71,경기도 화성시 비봉면 삼화리 537번지,37.264159,126.862783,화성시청,화성서부경찰서,Y,,12,2019-04-03
"초등학교",매송초등학교,경기도 화성시 매송면 화성로 2403,경기도 화성시 매송면 원평리 67-1번지,37.262782,126.929448,화성시청,화성서부경찰서,Y,,10,2019-04-03
"초등학교",봉담초등학교,경기도 화성시 봉담읍 진등3길 15,경기도 화성시 봉담읍 상리 39-10번지,37.222281,126.946602,화성시청,화성서부경찰서,Y,,8,2019-04-03
"초등학교",수영초등학교,경기도 화성시 봉담읍 수영로 63,경기도 화성시 봉담읍 수영리 143-1번지,37.236145,126.954272,화성시청,화성서부경찰서,Y,,20,2019-04-03
"초등학교",상봉초등학교,경기도 화성시 봉담읍 상봉길 52,경기도 화성시 봉담읍 동화리 569번지,37.220646,126.954475,화성시청,화성서부경찰서,Y,,27,2019-04-03
"초등학교",동화초등학교,경기도 화성시 봉담읍 동화새터길 130,경기도 화성시 봉담읍 동화리 606번지,37.216129,126.961858,화성시청,화성서부경찰서,Y,,26,2019-04-03
"초등학교",와우초등학교,경기도 화성시 봉담읍 식골길 14,경기도 화성시 봉담읍 동화리 188번지,37.219483,126.972371,화성시청,화성서부경찰서,Y,,14,2019-04-03
"초등학교",수기초등학교,경기도 화성시 봉담읍 수기웃말길 27,경기도 화성시 봉담읍 수기리 34-4번지,37.218334,126.954716,화성시청,화성서부경찰서,Y,,12,2019-04-03
"초등학교",갈담초등학교,경기도 화성시 봉담읍 갈담초교길 24,경기도 화성시 봉담읍 유리 86번지,37.174874,126.932508,화성시청,화성서부경찰서,Y,,19,2019-04-03
"초등학교",팔탄초등학교,경기도 화성시 팔탄면 마당바위로31번길 6,경기도 화성시 팔탄면 구장리 522-1번지,37.158795,126.902109,화성시청,화성서부경찰서,Y,,12,2019-04-03
"초등학교",팔탄초대방분교,경기도 화성시 팔탄면 노하길 398,경기도 화성시 팔탄면 노하리 173-1번지,37.159932,126.902408,화성시청,화성서부경찰서,Y,,8,2019-04-03
"초등학교",제암초등학교,경기도 화성시 향남읍 발안서로 21,경기도 화성시 향남읍 발안리 299번지,37.131358,126.902324,화성시청,화성서부경찰서,Y,,22,2019-04-03
"초등학교",월문초등학교,경기도 화성시 팔탄면 버들로 1537,경기도 화성시 팔탄면 월문리 192번지,37.118722,126.872906,화성시청,화성서부경찰서,Y,,11,2019-04-03
"초등학교",화수초등학교,경기도 화성시 우정읍 화수동길 145,경기도 화성시 우정읍 화수리 834-13번지,37.108314,126.797612,화성시청,화성서부경찰서,Y,,8,2019-04-03
"초등학교",우정초등학교,경기도 화성시 우정읍 버들로 138-10,경기도 화성시 우정읍 조암리 631-1번지,37.080903,126.801611,화성시청,화성서부경찰서,Y,,10,2019-04-03
"초등학교",장안초석포분교,경기도 화성시 장안면 버들로 1201-9,경기도 화성시 장안면 석포리 404번지,37.131098,126.840006,화성시청,화성서부경찰서,Y,,10,2019-04-03
"초등학교",석천초등학교,경기도 화성시 우정읍 석천길 52,경기도 화성시 우정읍 석천리 52-3번지,37.054996,126.788802,화성시청,화성서부경찰서,Y,,5,2019-04-03
"초등학교",노진초등학교,경기도 화성시 장안면 화곡로 166,경기도 화성시 장안면 노진리 506-6번지,37.051787,126.809195,화성시청,화성서부경찰서,Y,,8,2019-04-03
"초등학교",장명초장일분교,경기도 화성시 장안면 온수골2길 18,경기도 화성시 장안면 장안리 1075-87번지,37.056704,126.851595,화성시청,화성서부경찰서,Y,,4,2019-04-03
"초등학교",장명초등학교,경기도 화성시 장안면 장명길 19-8,경기도 화성시 장안면 장안리 152번지,37.056704,126.851404,화성시청,화성서부경찰서,Y,,3,2019-04-03
"초등학교",발안초등학교,경기도 화성시 향남읍 발안로 8,경기도 화성시 향남읍 행정리 392-2번지,37.130593,126.911834,화성시청,화성서부경찰서,Y,,25,2019-04-03
"초등학교",사창초등학교,경기도 화성시 양감면 정문회화로 7,경기도 화성시 양감면 사창리 409번지,37.091862,126.972922,화성시청,화성서부경찰서,Y,,9,2019-04-03
"초등학교",양감초등학교,경기도 화성시 양감면 초록로 49,경기도 화성시 양감면 신왕리 475-1번지,37.081466,126.951749,화성시청,화성서부경찰서,Y,,11,2019-04-03
"초등학교",행정초등학교,경기도 화성시 향남읍 행정중앙1로 77,경기도 화성시 향남읍 행정리 493번지,37.126814,126.923569,화성시청,화성서부경찰서,Y,,28,2019-04-03
"초등학교",도이초등학교,경기도 화성시 향남읍 행정동로 87,경기도 화성시 향남읍 행정리 476번지,37.132908,126.926106,화성시청,화성서부경찰서,Y,,23,2019-04-03
"초등학교",한울초등학교,경기도 화성시 향남읍 행정중앙1로 25,경기도 화성시 향남읍 행정리 442번지,37.127137,126.917616,화성시청,화성서부경찰서,Y,,30,2019-04-03
"초등학교",향남초등학교,경기도 화성시 향남읍 왜골길 7,경기도 화성시 향남읍 백토리 551번지,37.119271,126.942698,화성시청,화성서부경찰서,Y,,10,2019-04-03
"초등학교",갈천초등학교,경기도 화성시 향남읍 발안로 701-23,경기도 화성시 향남읍 갈천리 156-1번지,37.127492,126.980699,화성시청,화성서부경찰서,Y,,12,2019-04-03
"초등학교",송라초등학교,경기도 화성시 매송면 푸른들판로 1970-16,경기도 화성시 매송면 송라리 585번지,37.272781,126.888871,화성시청,화성서부경찰서,Y,,8,2019-04-03
"초등학교",장안초등학교,경기도 화성시 장안면 조암동로 8-5,경기도 화성시 장안면 어은리 812번지,37.085735,126.824068,화성시청,화성서부경찰서,Y,,7,2019-04-03
"어린이집",무지개어린이집,경기도 화성시 봉담읍 생수길 39-1,경기도 화성시 봉담읍 왕림리 535-4번지,37.191551,126.941783,화성시청,화성서부경찰서,Y,,3,2019-04-03
"유치원",섭리유치원,경기도 화성시 봉담읍 독정길 28-29,경기도 화성시 봉담읍 왕림리 220번지,37.195404,126.935345,화성시청,화성서부경찰서,Y,,5,2019-04-03
"어린이집",마리아의종어린이집,경기도 화성시 봉담읍 최루백로 136-5,경기도 화성시 봉담읍 분천리 10-5번지,37.210177,126.955644,화성시청,화성서부경찰서,Y,,19,2019-04-03
"유치원",이화유치원,경기도 화성시 봉담읍 시냇말길 38,경기도 화성시 봉담읍 분천리 54-7번지,37.210052,126.959281,화성시청,화성서부경찰서,Y,,20,2019-04-03
"유치원",신우정유치원,경기도 화성시 우정읍 쌍봉로 101-11,경기도 화성시 우정읍 조암리 386번지,37.088531,126.815343,화성시청,화성서부경찰서,Y,,25,2019-04-03
"유치원",시연유치원,경기도 화성시 봉담읍 동화길 61,경기도 화성시 봉담읍 동화리 592번지,37.218325,126.956214,화성시청,화성서부경찰서,Y,,27,2019-04-03
"유치원",깊은샘유치원,경기도 화성시 향남읍 행정서로2길 21,경기도 화성시 향남읍 행정리 422번지,37.130337,126.912847,화성시청,화성서부경찰서,Y,,25,2019-04-03
"유치원",지은유치원,경기도 화성시 향남읍 서해로535번길 33-12,경기도 화성시 향남읍 상신리 87-12번지,37.112877,126.898984,화성시청,화성서부경찰서,Y,,4,2019-04-03
"어린이집",솔로몬어린이집,경기도 화성시 향남읍 발안만세길 57,경기도 화성시 향남읍 발안리 190번지,37.138061,126.902578,화성시청,화성서부경찰서,Y,,25,2019-04-03
"유치원",대한유치원,경기도 화성시 우정읍 매향석천로 151,경기도 화성시 우정읍 석천리 941번지,37.044562,126.772357,화성시청,화성서부경찰서,Y,,12,2019-04-03
"유치원",무궁화유치원,경기도 화성시 팔탄면 3.1만세로 841-10,경기도 화성시 팔탄면 매곡리 149-6번지,37.117069,126.886812,화성시청,화성서부경찰서,Y,,12,2019-04-03
"유치원",세진유치원,경기도 화성시 팔탄면 삼천병마로 553-6,경기도 화성시 팔탄면 가재리 276-5번지,37.159212,126.928452,화성시청,화성서부경찰서,Y,,18,2019-04-03
"유치원",우림유치원,경기도 화성시 남양읍 남양성지로 22-4,경기도 화성시 남양읍 남양리 415-4번지,37.205576,126.806086,화성시청,화성서부경찰서,Y,,7,2019-04-03
"유치원",학촌유치원,경기도 화성시 봉담읍 웃음길 62,경기도 화성시 봉담읍 동화리 588번지,37.212956,126.960487,화성시청,화성서부경찰서,N,,12,2019-04-03
"어린이집",어린왕자어린이집,경기도 화성시 봉담읍 시청로 1375,경기도 화성시 봉담읍 유리 177-3번지,37.173488,126.933298,화성시청,화성서부경찰서,Y,,25,2019-04-03
"어린이집",꽃내음어린이집,경기도 화성시 비봉면 비봉로 136-3,경기도 화성시 비봉면 양노리 301-4번지,37.235856,126.866376,화성시청,화성서부경찰서,N,,12,2019-04-03
"어린이집",가람어린이집,경기도 화성시 봉담읍 샘마을1길 27,경기도 화성시 봉담읍 상리 11-60번지,37.218164,126.951023,화성시청,화성서부경찰서,Y,,7,2019-04-03
"유치원",이룸유치원,경기도 화성시 향남읍 상신초교길 37,경기도 화성시 향남읍 상신리 846번지,37.095319,126.902581,화성시청,화성서부경찰서,Y,,4,2019-04-03
"어린이집",해창이레어린이집,경기도 화성시 팔탄면 해창길 28-5,경기도 화성시 팔탄면 해창리 37-25번지,37.110421,126.880572,화성시청,화성서부경찰서,Y,,4,2019-04-03
"어린이집",로뎀나무어린이집,경기도 화성시 남양읍 화성로1081번길 49-1,경기도 화성시 남양읍 남양리 255-9번지,37.210606,126.803356,화성시청,화성서부경찰서,Y,,8,2019-04-03
"어린이집",아이랜드어린이집,경기도 화성시 봉담읍 동화새터길 11-10,경기도 화성시 봉담읍 동화리 410-5번지,37.223318,126.954549,화성시청,화성서부경찰서,Y,,8,2019-04-03
"어린이집",진주어린이집,경기도 화성시 봉담읍 삼봉길 14,경기도 화성시 봉담읍 상리 258-1번지,37.224613,126.936021,화성시청,화성서부경찰서,Y,,3,2019-04-03
"어린이집",꿈에어린이집,경기도 화성시 팔탄면 시청로 790-3,경기도 화성시 팔탄면 율암리 398-17번지,37.168062,126.878141,화성시청,화성서부경찰서,Y,,10,2019-04-03
"어린이집",시립향남어린이집,경기도 화성시 향남읍 행정서로3길 54-8,경기도 화성시 향남읍 행정리 437-4번지,37.130169,126.918908,화성시청,화성서부경찰서,Y,,11,2019-04-03
"어린이집",남양영재어린이집,경기도 화성시 남양읍 화성로1155번길 11-10,경기도 화성시 남양읍 남양리 176-4번지,37.211357,126.809661,화성시청,화성서부경찰서,Y,,5,2019-04-03
"유치원",비손유치원,경기도 화성시 봉담읍 샘마을길 22-13,경기도 화성시 봉담읍 상리 24-7번지,37.217663,126.949004,화성시청,화성서부경찰서,Y,,11,2019-04-03
"유치원",바다유치원,경기도 화성시 향남읍 행정서로1길 53,경기도 화성시 향남읍 행정리 424번지,37.129383,126.914887,화성시청,화성서부경찰서,Y,,10,2019-04-03
"어린이집",미래숲어린이집,경기도 화성시 봉담읍 최루백로 286,경기도 화성시 봉담읍 분천리 148-10번지,37.199927,126.966136,화성시청,화성서부경찰서,Y,,8,2019-04-03
"어린이집",통통어린이집,경기도 화성시 정남면 덕절전원길 41,경기도 화성시 정남면 덕절리 443번지,37.138364,127.026236,화성시청,화성서부경찰서,Y,,5,2019-04-03
"어린이집",명문어린이집,경기도 화성시 남양읍 남양성지로 22-14,경기도 화성시 남양읍 남양리 431번지,37.204754,126.805218,화성시청,화성서부경찰서,Y,,3,2019-04-03
"어린이집",시립발안어린이집,경기도 화성시 향남읍 발안공단로5길 14,경기도 화성시 향남읍 구문천리 929-18,37.132073,126.918723,화성시청,화성서부경찰서,Y,,19,2019-04-03
"어린이집",보림어린이집,경기도 화성시 봉담읍 동화새터길 39,경기도 화성시 봉담읍 동화리 438-1번지,37.222129,126.956255,화성시청,화성서부경찰서,Y,,10,2019-04-03
"특수학교",해원학교,경기도 화성시 장안면 은골길30번길 43,경기도 화성시 장안면 어은리 300번지,37.090607,126.836317,화성시청,화성서부경찰서,Y,,3,2019-04-03
"초등학교",하길초등학교,경기도 화성시 향남읍 상신하길로273번길 45,경기도 화성시 향남읍 하길리 1-9번지,37.115909,126.905184,화성시청,화성서부경찰서,Y,,12~18,2019-04-03
"초등학교",화원초등학교,경기도 화성시 향남읍 하길로 59,경기도 화성시 향남읍 하길리 1506번지,37.111831,126.919115,화성시청,화성서부경찰서,Y,,13~20,2019-04-03
"초등학교",효행초등학교,경기도 화성시 봉담읍 와우로 16,경기도 화성시 봉담읍 와우리 592번지,37.216357,126.968243,화성시청,화성서부경찰서,Y,,18~24,2019-04-03
"초등학교",상신초등학교,경기도 화성시 향남읍 손개길 7,경기도 화성시 향남읍 상신리 1325번지,37.099278,126.898304,화성시청,화성서부경찰서,Y,,18,2019-04-03
"어린이집",아이네오어린이집,경기도 화성시 봉담읍 오래1길 24,경기도 화성시 봉담읍 동화리 555-1번지,37.2213249,126.954977,화성시청,화성서부경찰서,Y,,8,2019-04-03
"어린이집",산들어린이집,경기도 화성시 봉담읍 방골길 22,경기도 화성시 봉담읍 덕리 341번지,37.162554,126.933441,화성시청,화성서부경찰서,Y,,6,2019-04-03
"어린이집",마야어린이집,경기도 화성시 팔탄면 지월리 568-1,경기도 화성시 팔탄면 지월리 568-1,37.145486,126.889742,화성시청,화성서부경찰서,Y,,8,2019-04-03
"어린이집",푸른솔어린이집,경기도 화성시 봉담읍 오궁길 44,경기도 화성시 봉담읍 수기리 1-62,37.206743,126.979449,화성시청,화성서부경찰서,Y,,4,2019-04-03
"유치원",향남유치원,경기도 화성시 향남읍 상신하길로196번길 19,경기도 화성시 향남읍 하길리 1542번지,37.1060899814,126.9076622236,화성시청,화성서부경찰서,Y,,8,2019-04-03
"유치원",성심유치원,경기도 화성시 향남읍 은행나무로 807-24,경기도 화성시 향남읍 하길리 1376-1번지,37.1197288704,126.9154090159,화성시청,화성서부경찰서,Y,,9,2019-04-03
"초등학교",대양초등학교,경기도 화성시 남양읍 시청로32번길 80,경기도 화성시 남양읍 남양리 1813-8번지,37.2002121577,126.8217468699,화성시청,화성서부경찰서,Y,,9,2019-04-03
"초등학교",송린초등학교,경기도 화성시 수노을1로 253,경기도 화성시 새솔동,37.27824056,126.82410123,화성시청,화성서부경찰서,Y,,19.5~25.5,2019-04-03
"유치원",하길유치원,경기도 화성시 향남읍 벌말길 26,경기도 화성시 향남읍 하길리 1521번지,37.1122575544,126.9020515626,화성시청,화성서부경찰서,Y,,9,2019-04-03
