"시설종류",대상시설명,소재지도로명주소,소재지지번주소,위도,경도,관리기관명,관할경찰서명,CCTV설치여부,CCTV설치대수,보호구역도로폭,데이터기준일자
"초등학교",주원초등학교,경기도 양주시 고암길 242,경기도 양주시 고암동 580-5,37.8355374857,127.0728947752,경기도 양주시,양주경찰서,Y,,18,2019-10-07
"초등학교",광사초등학교,경기도 양주시 고읍남로 191번길 12,경기도 양주시 광사동 660,37.7914553456,127.0838368358,경기도 양주시,양주경찰서,Y,,12,2019-10-07
"초등학교",만송초등학교,경기도 양주시 고읍로 117-32,경기도 양주시 광사동 702,37.7975845332,127.0851608461,경기도 양주시,양주경찰서,Y,,12,2019-10-07
"초등학교",율정초등학교,경기도 양주시 옥정동로245-41,경기도 양주시 옥정동 1028,37.8280645631,127.0960640016,경기도 양주시,양주경찰서,Y,,12,2019-10-07
"초등학교",옥정초등학교,경기도 양주시 옥정로 5길 42-9,경기도 양주시 옥정동 956,37.823341,127.0884162001,경기도 양주시,양주경찰서,Y,,7,2019-10-07
"유치원",사랑유치원,경기도 양주시 고암길 270,경기도 양주시 고암동 121-7(주공2단지),37.834928,127.070855,경기도 양주시,양주경찰서,Y,,12,2019-10-07
"유치원",행복한유치원,경기도 양주시 백석읍 호명로 53-19,경기도 양주시 백석읍 복지리 148-16,37.789659,126.9932109264,경기도 양주시,양주경찰서,Y,,4,2019-10-07
"유치원",동심유치원,경기도 양주시 백석읍 호명로 19,경기도 양주시 백석읍 복지리 184-1,37.7916615315,126.992631,경기도 양주시,양주경찰서,Y,,4,2019-10-07
"유치원",아이림유치원,경기도 양주시 부흥로 2067-8,경기도 양주시 고읍동 21-2,37.805016,127.084232,경기도 양주시,양주경찰서,Y,,8,2019-10-07
"유치원",만송유치원,경기도 양주시 만송로 361,경기도 양주시 만송동 163-2,37.792411,127.094313,경기도 양주시,양주경찰서,Y,,8,2019-10-07
"유치원",해밀유치원(해밀어린이집),경기도 양주시 백석읍 꿈나무로 72-25,경기도 양주시 백석읍 방성리 218-1,37.8011109299,126.994942,경기도 양주시,양주경찰서,Y,,4,2019-10-07
"유치원",노블키즈유치원,경기도 양주시 광적면 삼일로 4-16,경기도 양주시 광적면 가납리 704-9,37.819732,126.986625,경기도 양주시,양주경찰서,Y,,8,2019-10-07
"유치원",산내들유지원,경기도 양주시 고삼로 92,경기도 양주시 만송동 223-1,37.7970879879,127.0936258897,경기도 양주시,양주경찰서,Y,,12,2019-10-07
"유치원",홈그루유치원,경기도 양주시 송랑로 39-52,경기도 양주시 만송동 445-5,37.7902321613,127.0858926258,경기도 양주시,양주경찰서,Y,,4,2019-10-07
"유치원",지엘유치원,경기도 양주시 청담로 243번길 203-15,경기도 양주시 고암동 493-2,37.8192088474,127.0663140885,경기도 양주시,양주경찰서,Y,,6,2019-10-07
"유치원",양주유치원,경기도 양주시 옥정동로 240,경기도 양주시 옥정동 1033,37.8281592599,127.0992082552,경기도 양주시,양주경찰서,Y,,24,2019-10-07
"어린이집",장흥어린이집,경기도 양주시 장흥면 일영로769번길 11-10,경기도 양주시 장흥면 일영리 207-3,37.7106096936,126.933076,경기도 양주시,양주경찰서,Y,,4,2019-10-07
"어린이집",키즈팜어린이집,경기도 양주시 만송로 417-17,경기도 양주시 만송동 14,37.7951120978,127.0992321696,경기도 양주시,양주경찰서,Y,,8,2019-10-07
"어린이집",중앙어린이집,경기도 양주시 평화로1454번길 34,경기도 양주시 덕계동 425-1,37.8193361117,127.049306,경기도 양주시,양주경찰서,Y,,8,2019-10-07
"어린이집",이튼스쿨어린이집,경기도 양주시 평화로1435번길 45,경기도 양주시 덕계동 671-1,37.820813,127.045179,경기도 양주시,양주경찰서,Y,,8,2019-10-07
"어린이집",큰바다어린이집,경기도 양주시 삼숭로38번길 210,경기도 양주시 삼숭동 681-4,37.7997221362,127.106629,경기도 양주시,양주경찰서,Y,,8,2019-10-07
"어린이집",황토어린이집,경기도 양주시 만송로330번길 23,경기도 양주시 만송동 105-7,37.7897109311,127.0936120398,경기도 양주시,양주경찰서,Y,,4,2019-10-07
"어린이집",옥정숲속어린이집,경기도 양주시 천보산로 100번길 66-21,경기도 양주시 회암동 144,37.849523,127.1013639397,경기도 양주시,양주경찰서,Y,,3,2019-10-07
"어린이집",사랑나무어린이집,경기도 양주시 어하고개로 132번길 139,경기도 양주시 삼숭동 96-14,37.8106633315,127.1106136934,경기도 양주시,양주경찰서,Y,,8,2019-10-07
"어린이집",예일스쿨어린이집,경기도 양주시 백석읍 양주산성로 871,경기도 양주시 백석읍 홍죽리 229-1,37.793501,126.965101,경기도 양주시,양주경찰서,Y,,4,2019-10-07
"유치원",유니유치원(유니어린이집),경기도 양주시 부흥로 1907번길 115,경기도 양주시 광사동 264-6,37.7975526761,127.0736068088,경기도 양주시,양주경찰서,Y,,4,2019-10-07
"유치원",아름솔 유치원,경기도 양주시 백석읍 호명로 19,경기도 양주시 장흥면 교현리 180-11,37.7916615315,126.9926385406,경기도 양주시,양주경찰서,Y,,4,2019-10-07
"유치원",예일유치원,경기도 양주시 고읍로 17,경기도 양주시 고읍동 443,37.8010412760,127.0790423599,경기도 양주시,양주경찰서,Y,,12,2019-10-07
"유치원",송랑유치원,경기도 양주시 고읍남로39번길 95,경기도 양주시 광사동 681,37.7895620613,127.0804833075,경기도 양주시,양주경찰서,Y,,8,2019-10-07
"유치원",새싹유치원,경기도 양주시 장흥면 호국로 477-24,경기도 양주시 장흥면 교현리 133-1,37.7154217152,126.9700807936,경기도 양주시,양주경찰서,Y,,4,2019-10-07
"유치원",우정유치원,경기도 양주시 청담로13번길 38-4,경기도 양주시 고읍동 408-4,37.8035870042,127.0711646395,경기도 양주시,양주경찰서,Y,,4,2019-10-07
"어린이집",핑크블루어린이집,경기도 양주시 독바위로300번길 12,경기도 양주시 옥정동 804-5,37.8199480174,127.0774906258,경기도 양주시,양주경찰서,Y,,6,2019-10-07
"어린이집",가람어린이집,경기도 양주시 백석읍 중앙로 337,경기도 양주시 백석읍 오산리 579-3,37.7994762307,126.9768868521,경기도 양주시,양주경찰서,Y,,12,2019-10-07
"어린이집",자연유아어린이집,경기도 양주시 부흥로 1571번길 3,경기도 양주시 마전동 106-3,37.782425,127.049533,경기도 양주시,양주경찰서,Y,,3,2019-10-07
"어린이집",회천어린이집,경기도 양주시 덕정9길 30,경기도 양주시 덕정동 138-42,37.844843,127.066671,경기도 양주시,양주경찰서,Y,,12,2019-10-07
"어린이집",몬테소리어린이집,경기도 양주시 원골로 134-5,경기도 양주시 유양동 437,37.784581,127.026661,경기도 양주시,양주경찰서,Y,,4,2019-10-07
"어린이집",한승어린이집,경기도 양주시 백석읍 권율로 1447,경기도 양주시 백석읍 오산리 296,37.8111892681,126.9799766460,경기도 양주시,양주경찰서,Y,,8,2019-10-07
"어린이집",누리봄어린이집,경기도 양주시 백석읍 부흥로1204번길 70-65,경기도 양주시 백석읍 방성리 578,37.790878,127.005291,경기도 양주시,양주경찰서,Y,,12,2019-10-07
"초등학교",남면초등학교,경기도 양주시 남면 개나리 18길 100,경기도 양주시 남면 신산리 286-2,37.8938670488,126.9757568576,경기도 양주시,양주경찰서,Y,,6,2019-10-07
"초등학교",가납초등학교,경기도 양주시 광적면 부흥로 793,경기도 양주시 광적면 가납리 799-2,37.8194461377,126.9831181780,경기도 양주시,양주경찰서,Y,,18,2019-10-07
"초등학교",효촌초등학교,경기도 양주시 광적면 화합로248번길,경기도 양주시 광적면 덕도리 755,37.8581286178,126.9633460381,경기도 양주시,양주경찰서,Y,,12,2019-10-07
"초등학교",송추초등학교,경기도 양주시 장흥면 호국로 499,경기도 양주시 장흥면 교현리 119,37.7157749345,126.9702303617,경기도 양주시,양주경찰서,Y,,30,2019-10-07
"초등학교",산북초등학교,경기도 양주시 평화로1261번길 96-46,경기도 양주시 산북동 352-1,37.8060886309,127.0391809366,경기도 양주시,양주경찰서,Y,,12,2019-10-07
"초등학교",회정초등학교,경기도 양주시 평화로 1567,경기도 양주시 회정동 344-1,37.8302076297,127.0521658607,경기도 양주시,양주경찰서,Y,,12,2019-10-07
"초등학교",삼숭초등학교,경기도 양주시 삼숭로 38번길 112,경기도 양주시 삼숭동 679-2,37.796703,127.108117,경기도 양주시,양주경찰서,Y,,12,2019-10-07
"초등학교",신지초등학교,경기도 양주시 백석읍 양주산성로 574번길 20,경기도 양주시 백석읍 복지리 156,37.7883097759,126.9901957601,경기도 양주시,양주경찰서,Y,,12,2019-10-07
"어린이집",행전어린이집,경기도 양주시 화합로1426번길 9,경기도 양주시 덕정동 164-1,37.840824,127.066909,경기도 양주시,양주경찰서,Y,,4,2019-10-07
"어린이집",미예뜰어린이집,경기도 양주시 율정로 247번길 79-45,경기도 양주시 율정동 133,37.8210579521,127.1054000893,경기도 양주시,양주경찰서,Y,,4,2019-10-07
"어린이집",예인어린이집(예인프리스쿨),경기도 양주시 화합로 1597번길 40,경기도 양주시 회암동 552-1,37.8405571030,127.084414,경기도 양주시,양주경찰서,Y,,4,2019-10-07
"어린이집",예인프리스쿨(예인어린이집),경기도 양주시 화합로1597번길 40,경기도 양주시 회암동 552-12,37.8405571030,127.0844331552,경기도 양주시,양주경찰서,Y,,4,2019-10-07
"어린이집",유니어린이집,경기도 양주시 부흥로 1907번길 117,경기도 양주시 광사동 264-7,37.7978050100,127.0735026005,경기도 양주시,양주경찰서,Y,,4,2019-10-07
"어린이집",푸른솔어린이집,경기도 양주시 부흥로 2021-12,경기도 양주시 장흥면 부곡리 486-3,37.8019910837,127.0814006382,경기도 양주시,양주경찰서,Y,,6,2019-10-07
"어린이집",해밀어린이집,경기도 양주시 백석읍 꿈나무로 72-25,경기도 양주시 백석읍 방성리 218-1,37.8011109299,126.994942,경기도 양주시,양주경찰서,Y,,4,2019-10-07
"어린이집",덕계어린이집,경기도 양주시 평화로 1435번길 56,경기도 양주시 덕계동 467,37.8214711837,127.0453313825,경기도 양주시,양주경찰서,Y,,4,2019-10-07
"어린이집",숲속자연어린이집,경기도 양주시 고덕로 355번길 62-12,경기도 양주시 고읍동 160-1,37.8060081264,127.0778984807,경기도 양주시,양주경찰서,Y,,4,2019-10-07
"어린이집",어깨동무어린이집,경기도 양주시 백석읍 꿈나무로 23,경기도 양주시 백석읍 방성리 122-6,37.803931,126.999834,경기도 양주시,양주경찰서,Y,,8,2019-10-07
"어린이집",광적어린이집,경기도 양주시 광적면 권율로 1444-159,경기도 양주시 광적면 가납리 76-4,37.8161771782,126.9812291140,경기도 양주시,양주경찰서,Y,,3,2019-10-07
"어린이집",남면어린이집,경기도 양주시 남면 개나리19길 52,경기도 양주시 남면 신산리 266-11,37.899225,126.976108,경기도 양주시,양주경찰서,Y,,8,2019-10-07
"유치원",솔빛유치원,경기도 양주시 어하고개로 27-75,경기도 양주시 옥정동405,37.8107780725,127.0947424528,경기도 양주시,양주경찰서,Y,,4,2019-10-07
"어린이집",엘사랑어린이집,경기도 양주시 삼숭로 13번길 7,경기도 양주시 삼숭동 236-3,37.795645,127.1009042154,경기도 양주시,양주경찰서,Y,,8,2019-10-07
"어린이집",예원어린이집,경기도 양주시 백석읍 양주산성로 625-3,경기도 양주시 백석읍 복지리 288-1,37.7856424053,126.9851919977,경기도 양주시,양주경찰서,Y,,6,2019-10-07
"어린이집",덕정삼성어린이집,경기도 양주시 고암길 275,경기도 양주시 고암동 122,37.8345148873,127.0714487986,경기도 양주시,양주경찰서,Y,,6,2019-10-07
"어린이집",청담어린이집,경기도 양주시 고암길 305-40,경기도 양주시 덕정동 210-2,37.8331616173,127.0684758161,경기도 양주시,양주경찰서,Y,,6,2019-10-07
"어린이집",샘내어린이집,경기도 양주시 평화로 1257번길 23-8,경기도 양주시 산북동 293-1,37.8037372636,127.0439034226,경기도 양주시,양주경찰서,Y,,3,2019-10-07
"어린이집",키즈웰어린이집,경기도 양주시 부흥로 2090,경기도 양주시 삼숭동 630-6,37.804737,127.0868542222,경기도 양주시,양주경찰서,Y,,6,2019-10-07
"어린이집",곰두리어린이집,경기도 양주시 고삼로43번길 30,경기도 양주시 삼숭동 640-1,37.8014401627,127.090661,경기도 양주시,양주경찰서,Y,,6,2019-10-07
"어린이집",봉우어린이집,경기도 양주시 고암길 353,"경기도 양주시 덕정동 236, 주공5단지 내",37.834148,127.066163,경기도 양주시,양주경찰서,Y,,8,2019-10-07
"어린이집",꾸러기어린이집,경기도 양주시 은현면 운하로 316-10,경기도 양주시 은현면 하패리 699-2,37.888013,127.0261556035,경기도 양주시,양주경찰서,Y,,4,2019-10-07
"어린이집",만송어린이집,경기도 양주시 고삼로 118-28,경기도 양주시 만송동 207-1,37.796738,127.0959189998,경기도 양주시,양주경찰서,Y,,8,2019-10-07
"어린이집",새암어린이집,경기도 양주시 백석읍 월암로112번길 91,경기도 양주시 백석읍 홍죽리 461-2,37.805441,126.960005,경기도 양주시,양주경찰서,Y,,4,2019-10-07
"어린이집",한솔어린이집,경기도 양주시 남면 개나리2길8,경기도 양주시 남면 신산리 326-2,37.8942089292,126.973516,경기도 양주시,양주경찰서,Y,,8,2019-10-07
"어린이집",덕원어린이집,경기도 양주시 은현면 화합로832번길 19,경기도 양주시 은현면 운암리 65-1,37.8689296044,127.020039,경기도 양주시,양주경찰서,Y,,4,2019-10-07
"어린이집",캐슬아이어린이집,경기도 양주시 고삼로90,경기도 양주시 만송동 219-1,37.7973766011,127.0932402132,경기도 양주시,양주경찰서,Y,,8,2019-10-07
"어린이집",송암어린이집,경기도 양주시 만송로 195-9,경기도 양주시 만송동 604-4,37.782882,127.0820290195,경기도 양주시,양주경찰서,Y,,3,2019-10-07
"어린이집",백석어린이집,경기도 양주시 백석읍 꿈나무로 193,경기도 양주시 백석읍 연곡리 143,37.7928611450,126.9871842232,경기도 양주시,양주경찰서,Y,,4,2019-10-07
"어린이집",봉암어린이집,경기도 양주시 은현면 봉암12길 21,경기도 양주시 은현면 봉암리 184-125,37.9072356777,127.0081780258,경기도 양주시,양주경찰서,Y,,4,2019-10-07
"어린이집",덕계선교어린이집,경기도 양주시 평화로1435번길 5-16,경기도 양주시 덕계동 679-3,37.819699,127.0450849311,경기도 양주시,양주경찰서,Y,,4,2019-10-07
"어린이집",자람어린이집,경기도 양주시 옥정동로 258,경기도 양주시 덕정동 206-1,37.8309483845,127.0994846124,경기도 양주시,양주경찰서,Y,,8,2019-10-07
"어린이집",남면산업단지어린이집,경기도 양주시 남면 감악산로215번길 169,경기도 양주시 남면 구암리 152-1,37.885605,126.9711260885,경기도 양주시,양주경찰서,Y,,4,2019-10-07
"초등학교",양주덕현초등학교,경기도 양주시 부흥로1989,경기도 양주시 고읍동 80-2,37.7996381661,127.0808348736,경기도 양주시,양주경찰서,Y,,8,2019-10-07
"초등학교",덕정초등학교,경기도 양주시 덕정1길28,경기도 양주시 덕정동 123,37.8463147571,127.063481,경기도 양주시,양주경찰서,Y,,8,2019-10-07
"초등학교",양주덕산초등학교,경기도 양주시 평화로1418-6,경기도 양주시 덕계동 420-1,37.8180179855,127.0471918684,경기도 양주시,양주경찰서,Y,,8,2019-10-07
"초등학교",천보초등학교,경기도 양주시 옥정동로9가길31-15,경기도 양주시 율정동 543-1,37.8335504641,127.0949714974,경기도 양주시,양주경찰서,Y,,8,2019-10-07
"초등학교",은현초등학교,경기도 양주시 은현면 화합로 912-20,경기도 양주시 은현면 선암리 553-2,37.8643342707,127.0227469998,경기도 양주시,양주경찰서,Y,,8,2019-10-07
"초등학교",상패초등학교,경기도 양주시 은현면 은현로312번길,경기도 양주시 은현면 하패리 796-4,37.8981622579,127.0265548553,경기도 양주시,양주경찰서,Y,,6,2019-10-07
"초등학교",봉암초등학교,경기도 양주시 은현면 삼육사로 473,경기도 양주시 은현면 봉암리 403-2,37.9108468025,127.0057540090,경기도 양주시,양주경찰서,Y,,6,2019-10-07
"초등학교",남면 양덕분교초등학교,경기도 양주시 남면 은남로119번길 373,경기도 양주시 남면 한산리 272-1,37.9086053854,126.9984125784,경기도 양주시,양주경찰서,Y,,6,2019-10-07
"초등학교",상수초등학교,경기도 양주시 남면 화합로 503,경기도 양주시 남면 상수리 443-2,37.8689991705,126.9879711518,경기도 양주시,양주경찰서,Y,,8,2019-10-07
"초등학교",덕도초등학교,경기도 양주시 광적면 광적로224번길,경기도 양주시 광적면 석우리525-14,37.840557,126.9775693172,경기도 양주시,양주경찰서,Y,,8,2019-10-07
"초등학교",양주백석초등학교,경기도 양주시 백석읍 중앙로223번길,경기도 양주시 백석읍 오산리 524,37.796341,126.985962,경기도 양주시,양주경찰서,Y,,12,2019-10-07
"초등학교",연곡초등학교,경기도 양주시 백석읍 월암로170번길,경기도 양주시 백석읍 연곡리 13-3,37.8070764101,126.961825,경기도 양주시,양주경찰서,Y,,8,2019-10-07
"초등학교",삼상초등학교,경기도 양주시 장흥면 일영로 641,경기도 양주시 장흥면 삼상리 288,37.7001098346,126.9300683240,경기도 양주시,양주경찰서,Y,,18,2019-10-07
"초등학교",은봉초등학교,경기도 양주시 백석읍 꿈나무로 321,경기도 양주시 백석읍 복지리 303-8,37.781621,126.9839168576,경기도 양주시,양주경찰서,Y,,18,2019-10-07
"초등학교",고암초등학교,경기도 양주시 고암길 320,경기도 양주시 덕정동 208-13,37.8354287341,127.0679326330,경기도 양주시,양주경찰서,Y,,18,2019-10-07
"초등학교",칠봉초등학교,경기도 양주시 회정로156,경기도 양주시 고암동 121,37.8380869416,127.070397,경기도 양주시,양주경찰서,Y,,12,2019-10-07
"초등학교",회천초등학교,경기도 양주시 고암길 73,경기도 양주시 고암동 122-1,37.8326564169,127.0696113037,경기도 양주시,양주경찰서,Y,,12,2019-10-07
"초등학교",덕계초등학교,경기도 양주시 평화로 1489번길 29,경기도 양주시 덕계동 524-9,37.8230271899,127.0474812812,경기도 양주시,양주경찰서,Y,,12,2019-10-07
"초등학교",유양초등학교,경기도 양주시 부흥로 1373-7,경기도 양주시 유양동 511-1,37.7858816067,127.0274046554,경기도 양주시,양주경찰서,Y,,8,2019-10-07
"초등학교",광숭초등학교,경기도 양주시 삼숭로 58번길 100,경기도 양주시 삼숭동 186-6,37.8015450078,127.1073889630,경기도 양주시,양주경찰서,Y,,12,2019-10-07
"초등학교",도둔초등학교,경기도 양주시 고덕로 89-1,경기도 양주시 덕계동 315-5,37.813784,127.0576554758,경기도 양주시,양주경찰서,Y,,12,2019-10-07
"초등학교",쉐마기독학교,경기도 양주시 은현면 화합로1080번길 184-16,경기도 양주시 은현면 용암리 861,37.849488,127.0265964611,경기도 양주시,양주경찰서,Y,,6,2019-10-07
"특수학교",양주도담학교,경기도 양주시 옥정서로5길 121,경기도 양주시 은현면 용암리 861,37.8338561959,127.0813174960,경기도 양주시,양주경찰서,Y,,12,2019-10-07
"어린이집",리틀천재플러스어린이집,경기도 양주시 백석읍 양주산성로 829,경기도 양주시 백석읍 가업리 503-4,37.7923640789,126.9691596896,경기도 양주시,양주경찰서,Y,,6,2019-10-07
"어린이집",푸른옥어린이집,경기도 양주시 장흥면 권율로 53-1,경기도 양주시 장흥면 일영리 27-1,37.7211500141,126.9448663864,경기도 양주시,양주경찰서,Y,,8,2019-10-07
"어린이집",자연사랑어린이집,경기도 양주시 청담로84번길 231-232,경기도 양주시 옥정동 465-1,37.8089226033,127.0846106127,경기도 양주시,양주경찰서,Y,,4,2019-10-07
