"시설종류",대상시설명,소재지도로명주소,소재지지번주소,위도,경도,관리기관명,관할경찰서명,CCTV설치여부,CCTV설치대수,보호구역도로폭,데이터기준일자
"초등학교",신천초등학교,경기도 동두천시 생연로9번길 20,경기도 동두천시 지행동 685,37.8942832,127.0477840,경기도 동두천시청,동두천경찰서,Y,2,8,2019-08-31
"초등학교",지행초등학교,경기도 동두천시 행선로 40,경기도 동두천시 지행동 322-10,37.8918921,127.0618285,경기도 동두천시청,동두천경찰서,Y,1,16,2019-08-31
"초등학교",소요초등학교,경기도 동두천시 봉동로 64,경기도 동두천시 상봉암동 237-2,37.9484697,127.0539505,경기도 동두천시청,동두천경찰서,Y,1,16,2019-08-31
"초등학교",송내초등학교,경기도 동두천시 중앙로 52,경기도 동두천시 송내동 665-4,37.8860983,127.0524390,경기도 동두천시청,동두천경찰서,Y,1,15,2019-08-31
"초등학교",이담초등학교,경기도 동두천시 이담로 21,경기도 동두천시 지행동 717-7,37.8894005,127.0508790,경기도 동두천시청,동두천경찰서,Y,1,15,2019-08-31
"초등학교",동보초등학교,경기도 동두천시 강변로 640번길 31,경기도 동두천시 동두천동 213,37.9245419,127.0519994,경기도 동두천시청,동두천경찰서,Y,1,8,2019-08-31
"초등학교",보산초등학교,경기도 동두천시 중앙로 427,경기도 동두천시 생연동 160-14,37.9147641,127.0639025,경기도 동두천시청,동두천경찰서,Y,1,16,2019-08-31
"초등학교",동두천초등학교,경기도 동두천시 평화로 2460번길 4,경기도 동두천시 생연동 469-2,37.9078682,127.0596482,경기도 동두천시청,동두천경찰서,Y,2,15,2019-08-31
"초등학교",탑동초등학교,경기도 동두천시 탑신로 61,경기도 동두천시 탑동동 395-1,37.8916728,127.1039838,경기도 동두천시청,동두천경찰서,Y,1,7,2019-08-31
"초등학교",사동초등학교,경기도 동두천시 생연로 51,경기도 동두천시 생연동 783,37.8974777,127.0486842,경기도 동두천시청,동두천경찰서,Y,2,8,2019-08-31
"초등학교",생연초등학교,경기도 동두천시 생골로 19,경기도 동두천시 생연동 411,37.9011338,127.0589129,경기도 동두천시청,동두천경찰서,Y,1,15,2019-08-31
"유치원",신천초등학교 병설유치원,경기도 동두천시 생연로9번길 20,경기도 동두천시 지행동 685,37.8942832,127.0477840,경기도 동두천시청,동두천경찰서,Y,1,8,2019-08-31
"유치원",지행초등학교 병설유치원,경기도 동두천시 행선로 40,경기도 동두천시 지행동 322-10,37.8918921,127.0618285,경기도 동두천시청,동두천경찰서,Y,1,16,2019-08-31
"유치원",소요초등학교 병설유치원,경기도 동두천시 봉동로 64,경기도 동두천시 상봉암동 237-2,37.9484697,127.0539505,경기도 동두천시청,동두천경찰서,Y,1,16,2019-08-31
"유치원",송내초등학교 병설유치원,경기도 동두천시 중앙로 52,경기도 동두천시 송내동 665-4,37.8860983,127.0524390,경기도 동두천시청,동두천경찰서,Y,1,15,2019-08-31
"유치원",이담초등학교 병설유치원,경기도 동두천시 이담로 21,경기도 동두천시 지행동 717-7,37.8894005,127.0508790,경기도 동두천시청,동두천경찰서,Y,1,15,2019-08-31
"유치원",동보초등학교 병설유치원,경기도 동두천시 강변로 640번길 31,경기도 동두천시 동두천동 213,37.9245419,127.0519994,경기도 동두천시청,동두천경찰서,Y,1,8,2019-08-31
"유치원",보산초등학교 병설유치원,경기도 동두천시 중앙로 427,경기도 동두천시 생연동 160-14,37.9147641,127.0639025,경기도 동두천시청,동두천경찰서,Y,2,16,2019-08-31
"유치원",동두천초등학교 병설유치원,경기도 동두천시 평화로 2460번길 4,경기도 동두천시 생연동 469-2,37.9078682,127.0596482,경기도 동두천시청,동두천경찰서,Y,1,15,2019-08-31
"유치원",탑동초등학교 병설유치원,경기도 동두천시 탑신로 61,경기도 동두천시 탑동동 395-1,37.8916728,127.1039838,경기도 동두천시청,동두천경찰서,Y,1,7,2019-08-31
"유치원",사동초등학교 병설유치원,경기도 동두천시 생연로 51,경기도 동두천시 생연동 783,37.8974777,127.0486842,경기도 동두천시청,동두천경찰서,Y,1,7,2019-08-31
"유치원",생연초등학교 병설유치원,경기도 동두천시 생골로 19,경기도 동두천시 생연동 411,37.9011338,127.0589129,경기도 동두천시청,동두천경찰서,Y,1,15,2019-08-31
"유치원",신흥유치원 병설유치원,경기도 동두천시 동광로 146,경기도 동두천시 생연동 511-1,37.9125650,127.0606472,경기도 동두천시청,동두천경찰서,Y,1,8,2019-08-31
"유치원",숲속연세유치원,경기도 동두천시 삼육사로 1146-12,경기도 동두천시 생연동 14,37.8938026,127.0747337,경기도 동두천시청,동두천경찰서,Y,2,15,2019-08-31
"유치원",예솔유치원,경기도 동두천시 장고갯로 192번길 9,경기도 동두천시 생연동 180-2,37.9118275,127.0662472,경기도 동두천시청,동두천경찰서,Y,1,16,2019-08-31
"유치원",효성유치원,경기도 동두천시 동광로 64,경기도 동두천시 생연동 613,37.9082779,127.0552239,경기도 동두천시청,동두천경찰서,Y,1,7.5,2019-08-31
"유치원",해바라기재능유치원,경기도 동두천시 못골로134번길 22-18,경기도 동두천시 생연동 106,37.9072596,127.0696777,경기도 동두천시청,동두천경찰서,Y,1,6,2019-08-31
"어린이집",광암어린이집,경기도 동두천시 쇠목길26번길 35,경기도 동두천시 광암동 218-8,37.8961276,127.0885338,경기도 동두천시청,동두천경찰서,Y,1,5,2019-08-31
"어린이집",내행어린이집,경기도 동두천시 삼육사로1002번길8,경기도 동두천시 생연동 386-2,37.8988212,127.0607582,경기도 동두천시청,동두천경찰서,Y,1,6.5,2019-08-31
"어린이집",보산어린이집,경기도 동두천시 싸리말로30,경기도 동두천시 보산동 314-7,37.9178582,127.0617706,경기도 동두천시청,동두천경찰서,Y,1,6.8,2019-08-31
"어린이집",안흥어린이집,경기도 동두천시 강변로702번길13-25,경기도 동두천시 동두천동 539-1,37.9304431,127.0499591,경기도 동두천시청,동두천경찰서,Y,1,13,2019-08-31
"어린이집",이담어린이집,경기도 동두천시 이담로 41,경기도 동두천시 지행동 722-6,37.8888917,127.0530376,경기도 동두천시청,동두천경찰서,Y,1,16,2019-08-31
"어린이집",해오름어린이집,경기도 동두천시 봉동로 194,경기도 동두천시 하봉암동 373-7,37.9563574,127.0565917,경기도 동두천시청,동두천경찰서,Y,1,6.5,2019-08-31
"어린이집",창말어린이집,경기도 동두천시 평화로2785번길60,경기도 동두천시 동두천동 289-24,37.9348948,127.0542064,경기도 동두천시청,동두천경찰서,Y,1,7,2019-08-31
"어린이집",상패어린이집,경기도 동두천시 어수로5,경기도 동두천시 상패동 83-1,37.9060337,127.0445271,경기도 동두천시청,동두천경찰서,Y,1,15,2019-08-31
"어린이집",예그린어린이집,경기도 동두천시 지행로153,경기도 동두천시 지행동 262-7,37.8922813,127.0645340,경기도 동두천시청,동두천경찰서,Y,1,5.5,2019-08-31
"어린이집",리라어린이집,경기도 동두천시 평화로2238번길25,경기도 동두천시 지행동 406-101,37.8876765,127.0582361,경기도 동두천시청,동두천경찰서,Y,1,5.5,2019-08-31
"어린이집",동두천미술어린이집,경기도 동두천시 지행로108번길58,경기도 동두천시 지행동 350-32,37.8897734,127.0597385,경기도 동두천시청,동두천경찰서,Y,1,7,2019-08-31
"어린이집",꿈나래어린이집,경기도 동두천시 행선로 20번길60,경기도 동두천시 지행동 379,37.8890884,127.0630890,경기도 동두천시청,동두천경찰서,N,0,12,2019-08-31
"어린이집",좋은열매어린이집,경기도 동두천시 강변로 336번길18,경기도 동두천시 생연동 791-2,37.8997250,127.0470874,경기도 동두천시청,동두천경찰서,N,0,8,2019-08-31
