"시설종류",대상시설명,소재지도로명주소,소재지지번주소,위도,경도,관리기관명,관할경찰서명,CCTV설치여부,CCTV설치대수,보호구역도로폭,데이터기준일자
"초등학교",원천초교,경기도 수원시 영통구 매영로 103,경기도 수원시 영통구 매탄동 1212,37.268478,127.053769,경기도 수원시청,남부경찰서,Y,5,8~20,2019-08-27
"초등학교",이의초교,경기도 수원시 영통구 법조로150번길 47,경기도 수원시 영통구 하동 993,37.293078,127.0755377,경기도 수원시청,남부경찰서,Y,5,6~25,2019-08-27
"초등학교",잠원초교,경기도 수원시 영통구 태장로54번길 11,경기도 수원시 영통구 망포동 687,37.2383238,127.0523988,경기도 수원시청,남부경찰서,Y,8,15~24,2019-08-27
"초등학교",원일초교,경기도 수원시 영통구 중부대로448번길 84,경기도 수원시 영통구 원천동 549-1,37.2676166,127.060258,경기도 수원시청,남부경찰서,Y,1,22,2019-08-27
"초등학교",중앙기독초,경기도 수원시 영통구 월드컵로 70,경기도 수원시 영통구 원천동 134-3,37.2749601,127.057689,경기도 수원시청,남부경찰서,Y,4,15~24,2019-08-27
"초등학교",태장초교,경기도 수원시 영통구 태장로71번길 30,경기도 수원시 영통구 망포동 371,37.240873,127.054624,경기도 수원시청,남부경찰서,Y,2,10~14,2019-08-27
"초등학교",황곡초교,경기도 수원시 영통구 영통로 518,경기도 수원시 영통구 영통동 948-3,37.2654882,127.0783402,경기도 수원시청,남부경찰서,Y,1,22~25,2019-08-27
"초등학교",효동초교,경기도 수원시 영통구 매탄로126번길 27,경기도 수원시 영통구 매탄동 1248,37.262512,127.045747,경기도 수원시청,남부경찰서,Y,2,23,2019-08-27
"초등학교",청명초교,경기도 수원시 영통구 봉영로1744번길 41,경기도 수원시 영통구 영통동 1053-6,37.265631,127.0852984,경기도 수원시청,남부경찰서,Y,7,15~18,2019-08-27
"초등학교",다솔초교,경기도 수원시 장안구 이목로 24-35,경기도 수원시 장안구 정자동 946,37.308697,126.987668,경기도 수원시청,중부경찰서,Y,2,8~16,2019-08-27
"초등학교",대평초교,경기도 수원시 장안구 대평로 111,경기도 수원시 장안구 정자동 871-2,37.2976635,126.990765,경기도 수원시청,중부경찰서,Y,8,32,2019-08-27
"초등학교",동신초교,경기도 수원시 장안구 만석로68번길 46,경기도 수원시 장안구 정자동 870-3,37.295672,126.989177,경기도 수원시청,중부경찰서,Y,10,20~25,2019-08-27
"초등학교",명인초교,경기도 수원시 장안구 대평로52번길 21,경기도 수원시 장안구 정자동 884-7,37.2941408,126.994889,경기도 수원시청,중부경찰서,Y,2,6~8,2019-08-27
"초등학교",상률초교,경기도 수원시 장안구 덕영대로417번길 98,경기도 수원시 장안구 율전동 142-22,37.304769,126.9694658,경기도 수원시청,중부경찰서,Y,2,6~12,2019-08-27
"초등학교",송림초교,경기도 수원시 장안구 대평로51번길 65,경기도 수원시 장안구 정자동 889-1,37.2911359,126.9913840,경기도 수원시청,중부경찰서,Y,10,12~22,2019-08-27
"초등학교",효원초교,경기도 수원시 영통구 효원로358번길 16,경기도 수원시 영통구 매탄동 1155,37.2592223,127.039915,경기도 수원시청,남부경찰서,Y,2,6~38,2019-08-27
"초등학교",송정초교,경기도 수원시 장안구 송정로 41,경기도 수원시 장안구 송죽동 404,37.2969782,127.0015485,경기도 수원시청,중부경찰서,Y,5,20,2019-08-27
"초등학교",송죽초교,경기도 수원시 장안구 송원로41번길 34,경기도 수원시 장안구 송죽동 502,37.3006956,127.0058871,경기도 수원시청,중부경찰서,Y,5,8~20,2019-08-27
"초등학교",수성초교,경기도 수원시 장안구 금당로 19,경기도 수원시 장안구 조원동 843,37.3055852,127.0147612,경기도 수원시청,중부경찰서,Y,5,15,2019-08-27
"초등학교",송원초교,경기도 수원시 장안구 수일로 185,경기도 수원시 장안구 조원동 872,37.3082905,127.010125,경기도 수원시청,중부경찰서,Y,2,8,2019-08-27
"초등학교",수일초교,경기도 수원시 장안구 수일로 85,경기도 수원시 장안구 파장동 411,37.3107797,127.0007647,경기도 수원시청,중부경찰서,Y,5,13,2019-08-27
"초등학교",율전초교,경기도 수원시 장안구 율전로 113,경기도 수원시 장안구 율전동 308-6,37.299827,126.9689562,경기도 수원시청,중부경찰서,Y,2,10~12,2019-08-27
"초등학교",정자초교,경기도 수원시 장안구 장안로 191,경기도 수원시 장안구 정자동 873,37.299561,126.9952334,경기도 수원시청,중부경찰서,Y,7,22~32,2019-08-27
"초등학교",정천초교,경기도 수원시 장안구 화산로 83,경기도 수원시 장안구 천천동 335,37.2909354,126.9826902,경기도 수원시청,중부경찰서,Y,2,20,2019-08-27
"초등학교",영화초교,경기도 수원시 장안구 경수대로 838,경기도 수원시 장안구 조원동 556,37.296861,127.016372,경기도 수원시청,중부경찰서,Y,2,13,2019-08-27
"초등학교",조원초교,경기도 수원시 장안구 금당로 53,경기도 수원시 장안구 조원동 390,37.3029088,127.0168051,경기도 수원시청,중부경찰서,Y,2,12,2019-08-27
"초등학교",천일초교,경기도 수원시 장안구 정자로19번길 13,경기도 수원시 장안구 천천동 570,37.300958,126.9780155,경기도 수원시청,중부경찰서,Y,10,15~20,2019-08-27
"초등학교",천천초교,경기도 수원시 장안구 정자로42번길 17,경기도 수원시 장안구 천천동 512,37.300584,126.982581,경기도 수원시청,중부경찰서,Y,9,14,2019-08-27
"초등학교",파장초교,경기도 수원시 장안구 경수대로1081번길 32-9,경기도 수원시 장안구 파장동 574,37.3088806,126.992357,경기도 수원시청,중부경찰서,Y,6,8,2019-08-27
"초등학교",한일초교,경기도 수원시 장안구 수일로 150,경기도 수원시 장안구 조원동 882,37.3069016,127.005812,경기도 수원시청,중부경찰서,Y,2,20,2019-08-27
"초등학교",효천초교,경기도 수원시 장안구 천천로21번길 11,경기도 수원시 장안구 정자동 923,37.2935542,126.9868257,경기도 수원시청,중부경찰서,Y,2,26,2019-08-27
"초등학교",남창초교,경기도 수원시 팔달구 행궁로 44-9,경기도 수원시 팔달구 남창동 126,37.2782018,127.0143786,경기도 수원시청,중부경찰서,Y,8,8,2019-08-27
"초등학교",매산초교,경기도 수원시 팔달구 향교로 93,경기도 수원시 팔달구 매산로3가 13,37.2720326,127.010756,경기도 수원시청,서부경찰서,Y,13,8,2019-08-27
"초등학교",수원초교,경기도 수원시 팔달구 팔달로110번길 26,경기도 수원시 팔달구 고등동 19,37.2777140,127.004348,경기도 수원시청,서부경찰서,Y,9,8~10,2019-08-27
"초등학교",연무초교,경기도 수원시 팔달구 창룡대로103번길 60,경기도 수원시 팔달구 매향동 7-1,37.2870522,127.0218721,경기도 수원시청,중부경찰서,Y,2,8~16,2019-08-27
"초등학교",우만초교,경기도 수원시 팔달구 창룡대로210번길 20,경기도 수원시 팔달구 우만동 300-3,37.2912588,127.0325545,경기도 수원시청,중부경찰서,Y,9,25,2019-08-27
"초등학교",인계초교,경기도 수원시 팔달구 장다리로245번길 12,경기도 수원시 팔달구 인계동 257-2,37.2730024,127.0263340,경기도 수원시청,남부경찰서,Y,9,6~26,2019-08-27
"초등학교",지동초교,경기도 수원시 팔달구 중부대로 67,경기도 수원시 팔달구 지동 119-1,37.2770183,127.0244477,경기도 수원시청,남부경찰서,Y,9,11,2019-08-27
"초등학교",팔달초교,경기도 수원시 팔달구 권광로367번길 22,경기도 수원시 팔달구 우만동 601,37.2793600,127.0360784,경기도 수원시청,중부경찰서,Y,8,10,2019-08-27
"초등학교",화서초교,경기도 수원시 팔달구 팔달로127번길 54-11,경기도 수원시 팔달구 화서동 104-2,37.2809960,127.0006185,경기도 수원시청,중부경찰서,Y,16,6~8,2019-08-27
"초등학교",화홍초교,경기도 수원시 팔달구 수성로258번길 70,경기도 수원시 팔달구 화서동 7-1,37.2870126,127.0029827,경기도 수원시청,중부경찰서,Y,5,6.5~8,2019-08-27
"초등학교",명당초교,경기도 수원시 권선구 세권로 319,경기도 수원시 권선구 권선동 1301,37.2519836,127.0391225,경기도 수원시청,남부경찰서,Y,6,20,2019-08-27
"초등학교",상촌초교,경기도 수원시 권선구 금곡로31번길 92,경기도 수원시 권선구 금곡동 699,37.273208,126.9354148,경기도 수원시청,서부경찰서,Y,8,11,2019-08-27
"초등학교",서평초교,경기도 수원시 권선구 수인로9번길 52,경기도 수원시 권선구 서둔동 294-3,37.2683911,126.9972414,경기도 수원시청,서부경찰서,Y,5,12,2019-08-27
"초등학교",서호초교,경기도 수원시 권선구 서호동로14번길 47,경기도 수원시 권선구 서둔동 39-7,37.2658672,126.990332,경기도 수원시청,서부경찰서,Y,5,6~20,2019-08-27
"초등학교",선일초교,경기도 수원시 권선구 권중로120번길 17,경기도 수원시 권선구 권선동 1276,37.2480287,127.0303830,경기도 수원시청,남부경찰서,Y,8,20,2019-08-27
"초등학교",선행초교,경기도 수원시 권선구 세권로196번길 21,경기도 수원시 권선구 권선동 1331,37.2541743,127.025981,경기도 수원시청,남부경찰서,Y,5,10,2019-08-27
"초등학교",세곡초교,경기도 수원시 권선구 세권로207번길 16,경기도 수원시 권선구 권선동 1044-1,37.2554443,127.0278170,경기도 수원시청,남부경찰서,Y,6,5~8,2019-08-27
"초등학교",신곡초교,경기도 수원시 권선구 정조로544번길 13-7,경기도 수원시 권선구 세류동 527,37.2578000,127.0132590,경기도 수원시청,남부경찰서,Y,8,8~12,2019-08-27
"초등학교",오목초교,경기도 수원시 권선구 오목천로 24,경기도 수원시 권선구 오목천동 422-1,37.2393515,126.9655665,경기도 수원시청,서부경찰서,Y,4,22,2019-08-27
"초등학교",오현초교,경기도 수원시 권선구 서수원로 220,경기도 수원시 권선구 오목천동 278,37.2466381,126.9685113,경기도 수원시청,서부경찰서,Y,5,12~24,2019-08-27
"초등학교",신영초교,경기도 수원시 영통구 영통로 266,경기도 수원시 영통구 영통동 972-3,37.250158,127.060253,경기도 수원시청,남부경찰서,Y,2,25,2019-08-27
"초등학교",일월초교,경기도 수원시 권선구 일월천로16번길 27,경기도 수원시 권선구 구운동 891,37.2839600,126.9746409,경기도 수원시청,서부경찰서,Y,5,20,2019-08-27
"초등학교",신풍초교(본교),경기도 수원시 영통구 도청로17번길 24,경기도 수원시 영통구 이의동 1342,37.2858746,127.053187,경기도 수원시청,남부경찰서,Y,2,38,2019-08-27
"초등학교",입북초교,경기도 수원시 권선구 율전로 10,경기도 수원시 권선구 입북동 230-3,37.2944431,126.960166,경기도 수원시청,서부경찰서,Y,13,8~20,2019-08-27
"초등학교",자혜학교,경기도 수원시 권선구 수봉로 47,경기도 수원시 권선구 탑동 508-6,37.2655062,126.9773738,경기도 수원시청,서부경찰서,Y,1,14,2019-08-27
"초등학교",칠보초교,경기도 수원시 권선구 금호로37번길 15,경기도 수원시 권선구 금곡동 245-2,37.2697731,126.955376,경기도 수원시청,서부경찰서,Y,9,8~10,2019-08-27
"초등학교",아름학교,경기도 수원시 영통구 광교로 32,경기도 수원시 영통구 이의동 1364,37.285711,127.039582,경기도 수원시청,중부경찰서,Y,5,30,2019-08-27
"초등학교",영동초교,경기도 수원시 영통구 봉영로1517번길 40,경기도 수원시 영통구 영통동 967-4,37.249899,127.0661065,경기도 수원시청,남부경찰서,Y,6,20,2019-08-27
"초등학교",탑동초교,경기도 수원시 권선구 탑동로 55,경기도 수원시 권선구 탑동 755,37.2737091,126.9732612,경기도 수원시청,서부경찰서,Y,2,8~17,2019-08-27
"초등학교",효정초교,경기도 수원시 권선구 동수원로28번길 5,경기도 수원시 권선구 권선동 1233,37.2549267,127.0347079,경기도 수원시청,남부경찰서,Y,5,15~35,2019-08-27
"초등학교",광교초교,경기도 수원시 영통구 대학로 91,경기도 수원시 영통구 이의동 1208,37.3035297,127.0452024,경기도 수원시청,남부경찰서,Y,9,8~20,2019-08-27
"초등학교",대선초교,경기도 수원시 영통구 봉영로 1432-19,경기도 수원시 영통구 망포동 710,37.2417136,127.064655,경기도 수원시청,남부경찰서,Y,6,10~15,2019-08-27
"초등학교",매원초교,경기도 수원시 영통구 월드컵로42번길 50,경기도 수원시 영통구 원천동 595,37.2743871122,127.0637224990,경기도 수원시청,남부경찰서,Y,2,15~25,2019-08-27
"초등학교",매탄초교,경기도 수원시 영통구 매탄로 139,경기도 수원시 영통구 매탄동 946,37.2642945,127.043191,경기도 수원시청,남부경찰서,Y,4,20,2019-08-27
"초등학교",매화초교,경기도 수원시 영통구 권광로304번길 47-17,경기도 수원시 영통구 매탄동 157,37.2746409,127.0407278,경기도 수원시청,남부경찰서,Y,2,15,2019-08-27
"초등학교",산남초교,경기도 수원시 영통구 산남로 86,경기도 수원시 영통구 매탄동 111-164,37.2705891,127.050118,경기도 수원시청,남부경찰서,Y,2,8~12,2019-08-27
"초등학교",소화초교,경기도 수원시 영통구 광교중앙로 30,경기도 수원시 영통구 원천동산49-1,37.2778144,127.0522355,경기도 수원시청,남부경찰서,Y,9,30~40,2019-08-27
"초등학교",신성초교,경기도 수원시 영통구 청명북로 42,경기도 수원시 영통구 영통동 1049-2,37.255472,127.081657,경기도 수원시청,남부경찰서,Y,2,26,2019-08-27
"초등학교",영통초교,경기도 수원시 영통구 영통로 328,경기도 수원시 영통구 영통동 963-3,37.2544705,127.064441,경기도 수원시청,남부경찰서,Y,2,25,2019-08-27
"유치원",금곡킹스키즈유치원,경기도 수원시 권선구 금곡로 45,경기도 수원시 권선구 금곡동 530,37.271342,126.937714,경기도 수원시청,서부경찰서,Y,1,15,2019-08-27
"유치원",동산유치원,경기도 수원시 권선구 매실로 70,경기도 수원시 권선구 호매실동 377,37.2676648,126.9591418,경기도 수원시청,서부경찰서,Y,1,12,2019-08-27
"유치원",수원여대부속유치원,경기도 수원시 권선구 온정로30번길 56,경기도 수원시 권선구 오목천동 35-7,37.2514339,126.965716,경기도 수원시청,서부경찰서,Y,1,8,2019-08-27
"유치원",아하유치원,경기도 수원시 권선구 덕영대로 975,경기도 수원시 권선구 세류동 195-3,37.2618978,127.003874,경기도 수원시청,서부경찰서,Y,1,8,2019-08-27
"유치원",리라유치원,경기도 수원시 장안구 덕영대로511번길 19,경기도 수원시 장안구 천천동 509-5,37.298958,126.979522,경기도 수원시청,중부경찰서,Y,1,10~15,2019-08-27
"유치원",성민유치원,경기도 수원시 장안구 하률로23,경기도 수원시 장안구 천천동 550-9,37.303021,126.975816,경기도 수원시청,중부경찰서,Y,1,8~25,2019-08-27
"유치원",은정유치원,경기도 수원시 권선구 경수대로302번길 29,경기도 수원시 권선구 권선동 1185-1,37.2536398,127.023049,경기도 수원시청,남부경찰서,Y,4,8,2019-08-27
"유치원",큰솔유치원,경기도 수원시 권선구 서둔로 191,경기도 수원시 권선구 탑동 332-1,37.268445,126.979824,경기도 수원시청,서부경찰서,Y,4,8,2019-08-27
"유치원",꿈꾸는아이들유치원,경기도 수원시 영통구 영일로 26(영통동),경기도 수원시 영통구 영통동 1014-15,37.2495992,127.076939,경기도 수원시청,남부경찰서,Y,1,21,2019-08-27
"유치원",늘푸른유치원,경기도 수원시 영통구 청명로 132,경기도 수원시 영통구 영통동 957-6,37.257434,127.074372,경기도 수원시청,남부경찰서,Y,3,25,2019-08-27
"유치원",명석유치원,경기도 수원시 영통구 영통로153번길 74-5,경기도 수원시 영통구 망포동 254,37.2416919,127.0508024,경기도 수원시청,남부경찰서,N,,4~6,2019-08-27
"유치원",새현대유치원,경기도 수원시 영통구 동수원로 448,경기도 수원시 영통구 매탄동 810-1,37.2683510,127.0429126,경기도 수원시청,남부경찰서,Y,4,32,2019-08-27
"유치원",영통제일유치원,경기도 수원시 영통구 청명로84,경기도 수원시 영통구 영통동 1046-5,37.2543932,127.078598,경기도 수원시청,남부경찰서,Y,1,25,2019-08-27
"유치원",가온유치원,경기도 수원시 장안구 화산로 85,경기도 수원시 장안구 천천동 333,37.291176,126.9810976,경기도 수원시청,중부경찰서,Y,1,8,2019-08-27
"유치원",세정유치원,경기도 수원시 장안구 팔달로199번길 50,경기도 수원시 장안구 영화동 426-9,37.287791,127.006636,경기도 수원시청,중부경찰서,Y,1,15,2019-08-27
"유치원",아이림유치원,경기도 수원시 장안구 수일로 279,경기도 수원시 장안구 조원동 351-10,37.304198,127.019921,경기도 수원시청,중부경찰서,Y,1,12,2019-08-27
"유치원",큰별유치원,경기도 수원시 장안구 금당로38번길 52,경기도 수원시 장안구 조원동 733-2,37.301456,127.015732,경기도 수원시청,중부경찰서,Y,1,6,2019-08-27
"유치원",데레사유치원,경기도 수원시 팔달구 팔달문로163번길 88,경기도 수원시 팔달구 우만동 502-10,37.286485,127.031237,경기도 수원시청,중부경찰서,Y,1,8~10,2019-08-27
"유치원",선경유치원,경기도 수원시 팔달구 권광로317번길 15,경기도 수원시 팔달구 인계동 159,37.2751544,127.0360497,경기도 수원시청,남부경찰서,Y,1,8,2019-08-27
"유치원",예림유치원,경기도 수원시 팔달구 팔달문로 134,경기도 수원시 팔달구 우만동 550-8,37.2821821,127.030685,경기도 수원시청,중부경찰서,Y,1,15,2019-08-27
"유치원",하나린유치원,경기도 수원시 권선구 수인로 192번길 66,경기도 수원시 권선구 서둔동 260-7,37.279961,126.980204,경기도 수원시청,서부경찰서,Y,4,6~8,2019-08-27
"유치원",빛누리유치원,경기도 수원시 영통구 대학1로8번길 52,경기도 수원시 영통구 이의동 1273,37.298205,127.043919,경기도 수원시청,남부경찰서,Y,4,10.5~21,2019-08-27
"유치원",꿈누리유치원,경기도 수원시 영통구 법조로 129,경기도 수원시 영통구 하동 982,37.2912716,127.0708178,경기도 수원시청,남부경찰서,Y,5,7.5~23,2019-08-27
"유치원",해들유치원,경기도 수원시 영통구 월드컵로 82번길 24,경기도 수원시 영통구 원천동 587,37.275296,127.056056,경기도 수원시청,남부경찰서,Y,4,6,2019-08-27
"유치원",라온유치원,경기도 수원시 영통구 태장로 54번길 98,경기도 수원시 영통구 망포동 649-78,37.2355773,127.0530277,경기도 수원시청,남부경찰서,Y,4,12~15,2019-08-27
"유치원",연화유치원,경기도 수원시 장안구 조원동 수일로 335,경기도 수원시 장안구 조원동 474-1,37.3008031,127.0230149,경기도 수원시청,중부경찰서,N,,6,2019-08-27
"유치원",행함유치원,경기도 수원시 장안구 금당로 99번길 7,경기도 수원시 장안구 467-34,37.300864,127.020848,경기도 수원시청,중부경찰서,Y,3,6,2019-08-27
"유치원",수도유치원,경기도 수원시 장안구 장안로 276-3,경기도 수원시 장안구 정자동 533-101,37.306636,126.9910508,경기도 수원시청,중부경찰서,Y,3,15,2019-08-27
"유치원",녹산유치원,경기도 수원시 팔달구 세지로 399번길 85,경기도 수원시 팔달구 우만1동 472-15,37.2884741,127.0265745,경기도 수원시청,중부경찰서,Y,5,6,2019-08-27
"유치원",뽀뽀뽀유치원,경기도 수원시 영통구 동수원로 514번길 33,경기도 수원시 영통구 매탄동 130-5,37.271928,127.0479507,경기도 수원시청,남부경찰서,Y,5,8,2019-08-27
"어린이집",수원어린이집,경기도 수원시 권선구 곡반정로 82(곡반정동),경기도 수원시 권선구 곡반정동 307-2,37.2356450,127.0300469,경기도 수원시청,남부경찰서,Y,4,8,2019-08-27
"어린이집",한별어린이집,경기도 수원시 영통구 영통로153번길 74-16 (영통동),경기도 수원시 영통구 망포동 289-1,37.242154,127.050662,경기도 수원시청,남부경찰서,Y,1,4~6,2019-08-27
"어린이집",수원근로복지공단어린이집,경기도 수원시 장안구 정조로1088번길 25,경기도 수원시 장안구 송죽동 454-21,37.3032378,127.003569,경기도 수원시청,중부경찰서,Y,1,10,2019-08-27
"어린이집",아이존어린이집,경기도 수원시 영통구 매영로 45번길 15,경기도 수원시 영통구 매탄2동 199-4,37.269871,127.047903,경기도 수원시청,남부경찰서,Y,5,8,2019-08-27
"어린이집",시립호매실어린이집,경기도 수원시 권선구 서수원로 431번길(호매실동),경기도 수원시 권선구 호매실동 1378,37.2646268,126.9549802,경기도 수원시청,서부경찰서,Y,4,10,2019-08-27
"어린이집",시립수원지방산업단지어린이집,경기도 수원시 권선구 산업로 174-21(고색동 산업 3단지),경기도 수원시 권선구 고색동 1085,37.241973,126.984113,경기도 수원시청,서부경찰서,Y,4,8,2019-08-27
"어린이집",시립금호어린이집,경기도 수원시 권선구 서수원로 577번길 202,경기도 수원시 권선구 금곡동 1068,37.277055,126.945783,경기도 수원시청,서부경찰서,Y,4,12,2019-08-27
"어린이집",바나나어린이집,경기도 수원시 권선구 구운로 47번길 66-19,경기도 수원시 권선구 구운동 956-5,37.278628,126.969416,경기도 수원시청,서부경찰서,Y,3,10,2019-08-27
"어린이집",동산어린이집,경기도 수원시 권선구 구운로 47번길 3,경기도 수원시 권선구 구운동 963-6,37.2776650,126.973006,경기도 수원시청,서부경찰서,Y,5,6~9,2019-08-27
"어린이집",햇님어린이집,경기도 수원시 권선구 세지로 27번길 24-18,경기도 수원시 권선구 세류동 1011-29,37.255726,127.014858,경기도 수원시청,남부경찰서,Y,3,8,2019-08-27
"어린이집",아이린어린이집,경기도 수원시 장안구 영화로 50번길 26,경기도 수원시 장안구 영화동 351-1,37.291691,127.009356,경기도 수원시청,중부경찰서,N,,6,2019-08-27
"초등학교",고색초교,경기도 수원시 권선구 매송고색로 681,경기도 수원시 권선구 고색동 887-59,37.2514358,126.9786360,경기도 수원시청,서부경찰서,Y,5,8~35,2019-08-27
"초등학교",고현초교,경기도 수원시 권선구 고현로 12,경기도 수원시 권선구 고색동 280,37.2488763,126.9880318,경기도 수원시청,서부경찰서,Y,6,15,2019-08-27
"초등학교",곡선초교,경기도 수원시 권선구 덕영대로1217번길 36,경기도 수원시 권선구 권선동 1199,37.250762,127.025402,경기도 수원시청,남부경찰서,Y,5,12~16,2019-08-27
"초등학교",곡정초교,경기도 수원시 권선구 곡선로 7,경기도 수원시 권선구 권선동 1358,37.2406969,127.0260420,경기도 수원시청,남부경찰서,Y,8,21,2019-08-27
"초등학교",구운초교,경기도 수원시 권선구 여기산로 29,경기도 수원시 권선구 구운동 465,37.280666,126.977944,경기도 수원시청,서부경찰서,Y,7,15,2019-08-27
"초등학교",권선초교,경기도 수원시 권선구 세지로126번길 27,경기도 수원시 권선구 권선동 948,37.2631400,127.0218511,경기도 수원시청,남부경찰서,Y,2,7~10,2019-08-27
"초등학교",금호초교,경기도 수원시 권선구 칠보로 142,경기도 수원시 권선구 호매실동 1364,37.264876572,126.953606438,경기도 수원시청,서부경찰서,Y,4,8~24,2019-08-27
"초등학교",남수원초교,경기도 수원시 권선구 경수대로235번길 24,경기도 수원시 권선구 세류동 1130,37.2496015,127.016736,경기도 수원시청,남부경찰서,Y,2,8~10,2019-08-27
"초등학교",가온초교,경기도 수원시 권선구 금곡로73번길 36,경기도 수원시 권선구 금곡동 1079,37.275491,126.936421,경기도 수원시청,서부경찰서,Y,4,8~21,2019-08-27
"초등학교",당수초교,경기도 수원시 권선구 당진로 6,경기도 수원시 권선구 당수동 244-3,37.2893352,126.9410988,경기도 수원시청,서부경찰서,Y,12,8~19,2019-08-27
"유치원",대연유치원,경기도 수원시 장안구 덕영대로 439번길 1,경기도 수원시 장안구 율전동 204-1,37.301178,126.9707686,경기도 수원시청,중부경찰서,Y,4,9,2019-08-27
"유치원",다현유치원,경기도 수원시 장안구 영화로 34,경기도 수원시 장안구 영화동 415-3,37.290093,127.008972,경기도 수원시청,중부경찰서,Y,4,6,2019-08-27
"유치원",한누리유치원,경기도 수원시 영통구 창룡대로 256번길 14,경기도 수원시 영통구 이의동 1284-1,37.29476903,127.037443515,경기도 수원시청,중부경찰서,N,,7,2019-08-27
"유치원",지성유치원,경기도 수원시 영통구 동탄지성로 456,경기도 수원시 영통구 망포동 669-1,37.2328974,127.046311,경기도 수원시청,남부경찰서,Y,5,25,2019-08-27
"유치원",소화유치원,경기도 수원시 팔달구 고화로 22,경기도 수원시 팔달구 고등동 78-1,37.271877,127.0077495,경기도 수원시청,서부경찰서,Y,4,7,2019-08-27
"유치원",예원유치원,경기도 수원시 권선구 오목천로 57번길 52-1,경기도 수원시 권선구 오목천동 526-52,37.242445,126.967948,경기도 수원시청,서부경찰서,Y,4,6,2019-08-27
"유치원",하늘유치원,경기도 수원시 권선구 금곡로 102번길 56,경기도 수원시 권선구 금곡동 1084,37.2717263308,126.941497687,경기도 수원시청,서부경찰서,Y,4,8~17,2019-08-27
"초등학교",매여울초교,경기도 수원시 팔달구 권광로260번길 20,경기도 수원시 팔달구 인계동 385,37.2703490,127.037017,경기도 수원시청,남부경찰서,Y,7,7,2019-08-27
"초등학교",숙지초교,경기도 수원시 팔달구 덕영대로735번길 23-1,경기도 수원시 팔달구 화서동 651,37.283231,126.991711,경기도 수원시청,중부경찰서,Y,7,12~15,2019-08-27
"초등학교",율현초교,경기도 수원시 팔달구 정자천로32번길 55,경기도 수원시 팔달구 화서동 710,37.2870334,126.9831859,경기도 수원시청,중부경찰서,Y,5,25,2019-08-27
"초등학교",창용초교,경기도 수원시 장안구 광교산로140번길 8,경기도 수원시 장안구 연무동 5-2,37.2992377,127.0310954,경기도 수원시청,중부경찰서,Y,2,3~15,2019-08-27
"초등학교",화양초교,경기도 수원시 팔달구 덕영대로735번길 65,경기도 수원시 팔달구 화서동 274,37.2833048,126.9951085,경기도 수원시청,중부경찰서,Y,7,12~15,2019-08-27
"초등학교",효성초교,경기도 수원시 팔달구 월드컵로 256,경기도 수원시 팔달구 우만동 16,37.2833006,127.0394349,경기도 수원시청,중부경찰서,Y,5,25,2019-08-27
"초등학교",세류초교,경기도 수원시 권선구 세류로 78,경기도 수원시 권선구 세류동 63,37.2662092,127.0098368,경기도 수원시청,서부경찰서,Y,5,12,2019-08-27
"초등학교",안룡초교,경기도 수원시 권선구 곡반정로33번길 21,경기도 수원시 권선구 곡반정동 606,37.2331211,127.0250080,경기도 수원시청,남부경찰서,Y,13,8~10,2019-08-27
"초등학교",중촌초교,경기도 수원시 권선구 서수원로617,경기도 수원시 권선구 금곡동 13-2,37.2801373108,126.9554598652,경기도 수원시청,서부경찰서,Y,8,6~10,2019-08-27
"초등학교",영덕초교,경기도 수원시 영통구 영통로 438,경기도 수원시 영통구 영통동 957-2,37.259049,127.073951,경기도 수원시청,남부경찰서,Y,1,26,2019-08-27
"초등학교",호매실초교,경기도 수원시 권선구 매실로 48,경기도 수원시 권선구 호매실동 388-7,37.2671247,126.956392,경기도 수원시청,서부경찰서,Y,5,8~20,2019-08-27
"초등학교",효탑초교,경기도 수원시 권선구 효탑로16번길 17,경기도 수원시 권선구 탑동 870,37.2662243,126.9760123,경기도 수원시청,서부경찰서,Y,2,7~17,2019-08-27
"초등학교",동수원초,경기도 수원시 영통구 인계로189번길 83,경기도 수원시 영통구 매탄동 898,37.269561,127.0401532,경기도 수원시청,남부경찰서,Y,2,12,2019-08-27
"초등학교",매현초교,경기도 수원시 영통구 동탄원천로881번길 77,경기도 수원시 영통구 매탄동 1278,37.256545,127.0419856,경기도 수원시청,남부경찰서,Y,5,12~25,2019-08-27
"초등학교",산의초교,경기도 수원시 영통구 센트럴타운로22번길 25,경기도 수원시 영통구 이의동 1327,37.290371,127.057186,경기도 수원시청,남부경찰서,Y,5,12~26,2019-08-27
"초등학교",영일초교,경기도 수원시 영통구 덕영대로1673번길 17,경기도 수원시 영통구 영통동 988-4,37.248453,127.073565,경기도 수원시청,남부경찰서,Y,2,10,2019-08-27
"초등학교",외국인학교,경기도 수원시 영통구 영통로 451,경기도 수원시 영통구 영통동 29-3,37.2605976,127.074222,경기도 수원시청,남부경찰서,Y,2,26,2019-08-27
"유치원",새알곡유치원,경기도 수원시 장안구 율전로107번길 61,경기도 수원시 장안구 율전동 357-3,37.2990882,126.965821,경기도 수원시청,중부경찰서,Y,1,8,2019-08-27
"유치원",이지유치원,경기도 수원시 권선구 곡반정로 72-5,경기도 수원시 권선구 곡반정동 311-1,37.235231,127.029868,경기도 수원시청,남부경찰서,Y,4,8,2019-08-27
"유치원",우리앤나라유치원,경기도 수원시 영통구 동탄원천로881번길 58,경기도 수원시 영통구 매탄동 1279-5,37.255687,127.042587,경기도 수원시청,남부경찰서,Y,5,18,2019-08-27
"유치원",상은유치원,경기도 수원시 영통구 삼성로302번길 11,경기도 수원시 영통구 원천동 319-7,37.266539,127.067328,경기도 수원시청,남부경찰서,Y,1,6,2019-08-27
"유치원",이오에스유치원,경기도 수원시 영통구 청명북로 6,경기도 수원시 영통구 영통동 1030-1,37.251992,127.079209,경기도 수원시청,남부경찰서,Y,1,20,2019-08-27
"유치원",꾸러기유치원,경기도 수원시 장안구 파장천로59번길12,경기도 수원시 장안구 파장동 291,37.310756,126.997091,경기도 수원시청,중부경찰서,Y,4,15,2019-08-27
"유치원",파라다이스유치원,경기도 수원시 권선구 삼천병마로 1597번길,경기도 수원시 권선구 오목천동 360-7,37.2449118,126.9620381,경기도 수원시청,서부경찰서,Y,3,6~8,2019-08-27
"유치원",큰나래유치원,경기도 수원시 영통구 광교로42번길 22,경기도 수원시 영통구 이의동 1362,37.285837,127.041106,경기도 수원시청,남부경찰서,Y,5,10.5~21,2019-08-27
"유치원",우주유치원,경기도 수원시 장안구 대평로 28-16,경기도 수원시 장안구 정자동  887-1,37.291301,126.996743,경기도 수원시청,중부경찰서,Y,4,15,2019-08-27
"유치원",세화유치원,경기도 수원시 장안구 장안로 398번길 1-1,경기도 수원시 장안구 이목동 731-1,37.316132,126.983705,경기도 수원시청,중부경찰서,Y,3,17,2019-08-27
"유치원",경동유치원,경기도 수원시 팔달구 고등동 69-12,경기도 수원시 팔달구 고등동 69-12,37.272261,127.006301,경기도 수원시청,서부경찰서,Y,4,6,2019-08-27
"어린이집",꼬망새어린이집,경기도 수원시 권선구 당진로32번길 28-17(당수동),경기도 수원시 권선구 당수동 169-2,37.2911772,126.9422256,경기도 수원시청,서부경찰서,Y,4,8,2019-08-27
"어린이집",매탄이솝어린이집,경기도 수원시 영통구 권선로803번길 5 (매탄동),경기도 수원시 영통구 매탄동 1162,37.255991,127.039061,경기도 수원시청,남부경찰서,Y,1,8,2019-08-27
"어린이집",다람어린이집,경기도 수원시 장안구 금당로38번길 11(조원동),경기도 수원시 장안구 조원동 731-27,37.302883,127.015331,경기도 수원시청,중부경찰서,N,,6,2019-08-27
"어린이집",햇볕은쨍쨍어린이집,경기도 수원시 장안구 정자로 130번길 24-3,경기도 수원시 장안구 정자동 374-7,37.301884,126.991443,경기도 수원시청,중부경찰서,Y,5,8~9,2019-08-27
"초등학교",곡반초교,경기도 수원시 권선구 덕영대로1323번길 26-14,경기도 수원시 권선구 권선동 1322,37.2467325,127.036216,경기도 수원시청,남부경찰서,Y,4,12~20,2019-08-27
"어린이집",시립세곡어린이집,경기도 수원시 권선구 세류로 16번길(세류동),경기도 수원시 권선구 세류동 333-10,37.261881,127.005565,경기도 수원시청,서부경찰서,Y,4,8,2019-08-27
"초등학교",금곡초교,경기도 수원시 권선구 서수원로617번길 30,경기도 수원시 권선구 금곡동 13-2,37.2798759,126.9526667,경기도 수원시청,서부경찰서,Y,2,7,2019-08-27
"초등학교",능실초교,경기도 수원시 권선구 호매실로165번길 28,경기도 수원시 권선구 호매실동 1391,37.2596532,126.9561631,경기도 수원시청,서부경찰서,Y,3,8,2019-08-27
"어린이집",아하키즈어린이집,경기도 수원시 영통구 매여울로 40번길 63,경기도 수원시 영통구 매탄동 102-8,37.2728695,127.048448,경기도 수원시청,남부경찰서,Y,4,6,2019-08-27
"유치원",학촌유치원,경기도 수원시 권선구 권중로11번길 11,경기도 수원시 권선구 권선동 1163-6,37.2563564,127.0336796,경기도 수원시청,남부경찰서,N,,6,2019-08-27
"유치원",드림유치원,경기도 수원시 권선구 당진로31번길 51-37,경기도 수원시 권선구 당수동 288-5,37.2912621,126.9371119,경기도 수원시청,서부경찰서,N,,8,2019-08-27
"유치원",다정유치원,경기도 수원시 권선구 경수대로168번길 102,경기도 수원시 권선구 권선동 1346-1,37.2408655322,127.021237435,경기도 수원시청,남부경찰서,N,,10~25,2019-08-27
"유치원",우리유치원,경기도 수원시 영통구 권선로803번길 32-7,경기도 수원시 영통구 매탄동 1166-1,37.2569348,127.0402106,경기도 수원시청,남부경찰서,N,,6~8,2019-08-27
"유치원",예은유치원,경기도 수원시 영통구 동탄원천로 1035,경기도 수원시 영통구 매탄동 1217-7,37.2658833,127.0502282,경기도 수원시청,남부경찰서,N,,6,2019-08-27
"어린이집",시립파장어린이집,경기도 수원시 장안구 파장천로30번길 40,경기도 수원시 장안구 파장동 593-5대,37.3070432,126.9971939,경기도 수원시청,중부경찰서,Y,5,8,2019-08-27
"어린이집",시립보훈어린이집,경기도 수원시 장안구 송정로187번길 83,경기도 수원시 장안구 조원동 756,37.3013123,127.0130416,경기도 수원시청,중부경찰서,Y,4,6,2019-08-27
"어린이집",시립당수동어린이집,경기도 수원시 권선구 당진로22번길 46,경기도 수원시 권선구 당수동 227,37.2907797,126.9431278,경기도 수원시청,서부경찰서,N,,8~10,2019-08-27
"어린이집",시립꽃뫼보듬이나눔어린이집,경기도 수원시 팔달구 덕영대로697번길 21-4,경기도 수원시 팔달구 화서동 660,37.2850836,126.9914163,경기도 수원시청,중부경찰서,N,,15,2019-08-27
"어린이집",시립광교동어린이집,경기도 수원시 영통구 도청로89번길 20,경기도 수원시 영통구 이의동 1350,37.2901436,127.047397002,경기도 수원시청,남부경찰서,Y,2,27,2019-08-27
"어린이집",아주대학교어린이집,경기도 수원시 영통구 월드컵로193번길 52-3,경기도 수원시 영통구 원천동 29-89,37.2769229,127.0443512,경기도 수원시청,남부경찰서,N,,6,2019-08-27
"어린이집",즐거운예원어린이집,경기도 수원시 영통구 매원로12번길 15,경기도 수원시 영통구 매탄동 209-24,37.2658087,127.0472347,경기도 수원시청,남부경찰서,N,,6~8,2019-08-27
"초등학교",광교호수초등학교,경기도 수원시 영통구 원천동 산 111-23,경기도 수원시 영통구 원천동 산111-23,37.2798726,127.0412445,경기도 수원시청,남부경찰서,N,,22,2019-08-27
"유치원",알곡유치원,경기도 수원시 장안구 정자천로13번길 130-13,경기도 수원시 장안구 천천동 339-30,37.2945429,126.9796099,경기도 수원시청,중부경찰서,N,,8,2019-08-27
"유치원",삼성유치원,경기도 수원시 장안구 서부로 2095-1,경기도 수원시 장안구 율전동 419,37.2960540555,126.9693273747,경기도 수원시청,중부경찰서,N,,10,2019-08-27
"유치원",홍익유치원,경기도 수원시 권선구 정조로544번길 40,경기도 수원시 권선구 세류동 532-5,37.2562459,127.0119851,경기도 수원시청,서부경찰서,N,,7,2019-08-27
"어린이집",시립화서동어린이집,경기도 수원시 팔달구 동말로4번길 22,경기도 수원시 팔달구 화서동 184-353,37.2760678,126.9953118,경기도 수원시청,중부경찰서,N,,8,2019-08-27
"어린이집",하하호호어린이집,경기도 수원시 팔달구 장다리로219번길 13,경기도 수원시 팔달구 인계동 974-10,37.2693881,127.0250208,경기도 수원시청,중부경찰서,N,,7,2019-08-27
"유치원",소망유치원,경기도 수원시 영통구 매영로199번길 29,경기도 수원시 영통구 원천동 333-6,37.2642391,127.0642942,경기도 수원시청,남부경찰서,N,,10,2019-08-27
"유치원",한얼유치원,경기도 수원시 영통구 동탄원천로1109번길 42,경기도 수원시 영통구 매탄동 1199,37.2708080,127.0564692,경기도 수원시청,남부경찰서,N,,8~25,2019-08-27
"어린이집",새밀알어린이집,경기도 수원시 장안구 덕영대로439번길 88,경기도 수원시 장안구 율전동 112-1,37.3047794,126.9714537,경기도 수원시청,중부경찰서,N,,7,2019-08-27
"어린이집",웅지어린이집,경기도 수원시 장안구 일월로90번길 26-1,경기도 수원시 장안구 천천동 325-10,37.2908736,126.9773035,경기도 수원시청,중부경찰서,N,,7,2019-08-27
"어린이집",밀알몬테소리어린이집,경기도 수원시 권선구 노림로6번길 28,경기도 수원시 권선구 호매실동 414-6,37.2663128,126.955977578,경기도 수원시청,서부경찰서,N,,8,2019-08-27
"어린이집",방주어린이집,경기도 수원시 권선구 수인로296번길 56,경기도 수원시 권선구 구운동 897-16,37.2849858,126.9726279,경기도 수원시청,서부경찰서,N,,10,2019-08-27
"어린이집",시립원천동어린이집,경기도 수원시 영통구 중부대로 335,경기도 수원시 영통구 원천동 610,37.2736894,127.052618211,경기도 수원시청,남부경찰서,N,,8~25,2019-08-27
