"시설종류",대상시설명,소재지도로명주소,소재지지번주소,위도,경도,관리기관명,관할경찰서명,CCTV설치여부,CCTV설치대수,보호구역도로폭,데이터기준일자
"초등학교",가곡초등학교,서울특별시 강서구 공항대로36길 74 (내발산동),,37.5557076033,126.83610183,서울특별시 강서구청,강서경찰서,Y,1,4,2019-08-28
"초등학교",발산초등학교,서울특별시 강서구 강서로45길 113 (내발산동),,37.5503201,126.831027,서울특별시 강서구청,강서경찰서,Y,2,10,2019-08-28
"초등학교",방화초등학교,서울특별시 강서구 양천로6길 92 (방화동),,37.5687036382,126.8074988480,서울특별시 강서구청,강서경찰서,Y,1,10,2019-08-28
"초등학교",백석초등학교,서울특별시 강서구 공항대로 491 (등촌동),,37.553469,126.8621938,서울특별시 강서구청,강서경찰서,Y,1,6,2019-08-28
"초등학교",삼정초등학교,서울특별시 강서구 금낭화로 222 (방화동),,37.5803891,126.8108471,서울특별시 강서구청,강서경찰서,Y,1,18,2019-08-28
"초등학교",신곡초등학교,서울특별시 강서구 등촌로13자길 42-14 (화곡동),,37.5390734,126.8556963,서울특별시 강서구청,강서경찰서,Y,1,6,2019-08-28
"초등학교",정곡초등학교,서울특별시 강서구 방화대로50길 22 (방화동),,37.5769308,126.818936,서울특별시 강서구청,강서경찰서,Y,1,20,2019-08-28
"유치원",정곡초등학교(병설유치원),서울특별시 강서구 방화대로50길 22 (방화동),,37.5769308,126.818936,서울특별시 강서구청,강서경찰서,N,,,2019-08-28
"초등학교",치현초등학교,서울특별시 강서구 방화대로47길 43 (방화동),,37.575537,126.814673,서울특별시 강서구청,강서경찰서,Y,2,10,2019-08-28
"초등학교",송정초등학교,서울특별시 강서구 공항대로3길 18 (공항동),,37.5627589,126.8110312,서울특별시 강서구청,강서경찰서,Y,1,10,2019-08-28
"초등학교",신월초등학교,서울특별시 강서구 강서로31길 48 (화곡동),,37.5401017,126.839074,서울특별시 강서구청,강서경찰서,Y,1,6,2019-08-28
"초등학교",신정초등학교,서울특별시 강서구 곰달래로31가길 27 (화곡동),,37.5327032,126.8524559,서울특별시 강서구청,강서경찰서,Y,1,6,2019-08-28
"초등학교",우장초등학교,서울특별시 강서구 화곡로 263 (화곡동),,37.5492011,126.846004,서울특별시 강서구청,강서경찰서,Y,1,4,2019-08-28
"유치원",문성유치원,서울특별시 강서구 우현로 8,,37.547055,126.844554,서울특별시 강서구청,강서경찰서,N,,,2019-08-28
"초등학교",화곡초등학교,서울특별시 강서구 초록마을로 28 (화곡동),,37.543208,126.8459269,서울특별시 강서구청,강서경찰서,Y,2,10,2019-08-28
"초등학교",가양초등학교,서울특별시 강서구 허준로 186 (가양동),,37.5617187,126.8586437,서울특별시 강서구청,강서경찰서,Y,1,7,2019-08-28
"초등학교",개화초등학교,서울특별시 강서구 양천로 11 (방화동),,37.5736852,126.8046641,서울특별시 강서구청,강서경찰서,Y,2,20,2019-08-28
"초등학교",공진초등학교,서울특별시 강서구 마곡서로 33 (마곡동),,37.557822,126.8226110323,서울특별시 강서구청,강서경찰서,N,,,2019-08-28
"유치원",공진초등학교병설유치원,서울특별시 강서구  마곡서로 33 (마곡동),,37.557822,126.8226110323,서울특별시 강서구청,강서경찰서,N,,,2019-08-28
"초등학교",공항초등학교,서울특별시 강서구 마곡서1로 68 (마곡동),,37.5632004,126.821544,서울특별시 강서구청,강서경찰서,N,,,2019-08-28
"유치원",공항초등학교병설유치원,서울특별시 강서구 마곡서1로 68 (마곡동),,37.5632004,126.821544,서울특별시 강서구청,강서경찰서,N,,,2019-08-28
"초등학교",내발산초등학교,서울특별시 강서구 강서로46길 23 (내발산동),,37.5512480,126.8377005,서울특별시 강서구청,강서경찰서,Y,2,7,2019-08-28
"유치원",내발산병설유치원,서울특별시 강서구 강서로46길 23 (내발산동),,37.5512480,126.8377005,서울특별시 강서구청,강서경찰서,N,,,2019-08-28
"초등학교",등명초등학교,서울특별시 강서구 강서로56나길 34 (등촌동),,37.5606951,126.8425361,서울특별시 강서구청,강서경찰서,Y,1,10,2019-08-28
"초등학교",등서초등학교,서울특별시 강서구 화곡로58길 86 (화곡동),,37.551822,126.8549196,서울특별시 강서구청,강서경찰서,Y,2,10,2019-08-28
"초등학교",등양초등학교,서울특별시 강서구 강서로56나길 140 (등촌동),,37.5648029,126.8446617,서울특별시 강서구청,강서경찰서,Y,1,10,2019-08-28
"초등학교",등원초등학교,서울특별시 강서구 화곡로65길 90 (등촌동),,37.5603228,126.8500834,서울특별시 강서구청,강서경찰서,Y,1,10,2019-08-28
"초등학교",등촌초등학교,서울특별시 강서구 등촌로39길 71 (등촌동),,37.547477,126.8577618,서울특별시 강서구청,강서경찰서,Y,2,6,2019-08-28
"초등학교",등현초등학교,서울특별시 강서구 화곡로65길 124 (등촌동),,37.561389,126.8480367,서울특별시 강서구청,강서경찰서,Y,1,10,2019-08-28
"초등학교",송화초등학교,서울특별시 강서구 방화대로34길 2 (방화동),,37.5682828,126.8174657,서울특별시 강서구청,강서경찰서,Y,1,10,2019-08-28
"초등학교",양천초등학교,서울특별시 강서구 양천로 329 (가양동),,37.5701684,126.8395913,서울특별시 강서구청,강서경찰서,Y,1,10,2019-08-28
"초등학교",염강초등학교,서울특별시 강서구 허준로 221-22 (가양동),,37.561171,126.8644193,서울특별시 강서구청,강서경찰서,Y,2,8,2019-08-28
"초등학교",염창초등학교,서울특별시 강서구 양천로 646-28 (염창동),,37.5529744,126.8677461,서울특별시 강서구청,강서경찰서,Y,2,8,2019-08-28
"초등학교",월정초등학교,서울특별시 강서구 월정로 176 (화곡동),,37.5347268,126.8360595,서울특별시 강서구청,강서경찰서,Y,2,12,2019-08-28
"초등학교",탑산초등학교,서울특별시 강서구 허준로 109 (가양동),,37.566675,126.8521896,서울특별시 강서구청,강서경찰서,Y,1,25,2019-08-28
"초등학교",유석초등학교,서울특별시 강서구 화곡로69길 9 (등촌동),,37.5608016256,126.853766,서울특별시 강서구청,강서경찰서,Y,3,12,2019-08-28
"초등학교",염동초등학교,서울특별시 강서구 양천로73길 17 (염창동),,37.5521222,126.8723730,서울특별시 강서구청,강서경찰서,N,,,2019-08-28
"초등학교",염경초등학교,서울특별시 강서구 양천로69길 49 (염창동),,37.5548065,126.8712574,서울특별시 강서구청,강서경찰서,Y,2,8,2019-08-28
"유치원",염경초등학교병설유치원,서울특별시 강서구 양천로69길 49 (염창동),,37.5548065,126.8712574,서울특별시 강서구청,강서경찰서,N,,,2019-08-28
"초등학교",화일초등학교,서울특별시 강서구 까치산로10길 70 (화곡동),,37.5403602,126.847465,서울특별시 강서구청,강서경찰서,Y,2,8,2019-08-28
"유치원",화일초등학교병설유치원,서울특별시 강서구 까치산로10길 70 (화곡동),,37.5403602,126.8474650,서울특별시 강서구청,강서경찰서,N,,,2019-08-28
"유치원",수명초등학교,서울특별시 강서구 수명로1길 84 (내발산동),,37.5527743821,126.823844,서울특별시 강서구청,강서경찰서,Y,1,12,2019-08-28
"유치원",등마초등학교,서울특별시 강서구 등촌로35길 12 (등촌동),,37.5420258,126.8616338,서울특별시 강서구청,강서경찰서,Y,1,8,2019-08-28
"유치원",미도유치원,서울특별시 강서구 공항대로58가길 39 (등촌동),,37.550429,126.8610512,서울특별시 강서구청,강서경찰서,Y,1,6,2019-08-28
"유치원",보라유치원,"서울특별시 강서구 공항대로39길 100 (등촌동, 대림아파트)",,37.5625390,126.8465439,서울특별시 강서구청,강서경찰서,Y,1,10,2019-08-28
"유치원",수미유치원,서울특별시 강서구 강서로17길 130 (화곡동),,37.532117,126.838533,서울특별시 강서구청,강서경찰서,Y,1,10,2019-08-28
"유치원",신영유치원,서울특별시 강서구 곰달래로25길 4 (화곡동),,37.530958,126.849217,서울특별시 강서구청,강서경찰서,Y,1,8,2019-08-28
"유치원",예지유치원,서울특별시 강서구 남부순환로11가길 89 (공항동),,37.5576234,126.813240,서울특별시 강서구청,강서경찰서,Y,1,6,2019-08-28
"유치원",대유유치원,서울특별시 강서구 곰달래로57길 39 (화곡동),,37.533979,126.861588,서울특별시 강서구청,강서경찰서,Y,1,6,2019-08-28
"유치원",등촌이화유치원,서울특별시 강서구 화곡로63가길 26 (등촌동),,37.5596920,126.847951,서울특별시 강서구청,강서경찰서,Y,1,10,2019-08-28
"유치원",방화이화유치원,서울특별시 강서구 양천로17길 4-55 (방화동),,37.5739890,126.8135129,서울특별시 강서구청,강서경찰서,Y,1,6,2019-08-28
"유치원",새싹유치원,서울특별시 강서구 곰달래로49길 10 (화곡동),,37.532147,126.858060,서울특별시 강서구청,강서경찰서,Y,1,9,2019-08-28
"유치원",새화곡유치원,서울특별시 강서구 강서로15길 40 (화곡동),,37.5323019,126.843815,서울특별시 강서구청,강서경찰서,Y,1,6,2019-08-28
"유치원",국제유치원,서울특별시 강서구 양천로30길 4 (마곡동),,37.5704783,126.822935,서울특별시 강서구청,강서경찰서,Y,1,8,2019-08-28
"유치원",선미유치원,서울특별시 강서구 까치산로2길 43 (화곡동),,37.539273,126.843663,서울특별시 강서구청,강서경찰서,Y,1,6,2019-08-28
"유치원",신세기유치원,"서울특별시 강서구 허준로 47 (가양동, 가양2단지아파트)",,37.5703714,126.8474442,서울특별시 강서구청,강서경찰서,Y,1,25,2019-08-28
"유치원",우일유치원,서울특별시 강서구 곰달래로47길 88 (화곡동),,37.5351277,126.855313,서울특별시 강서구청,강서경찰서,Y,1,6,2019-08-28
"유치원",서강유치원,서울특별시 강서구 금낭화로13길 47-9 (방화동),,37.5712280,126.808358,서울특별시 강서구청,강서경찰서,Y,1,6,2019-08-28
"유치원",윤서유치원,"서울특별시 강서구 화곡로13길 107 (화곡동, 화곡푸르지오)",,37.5443631,126.8315655,서울특별시 강서구청,강서경찰서,Y,1,6,2019-08-28
"유치원",등촌제일유치원,서울특별시 강서구 화곡로66길 118 (등촌동),,37.555424,126.859332,서울특별시 강서구청,강서경찰서,Y,1,6,2019-08-28
"유치원",동그라미유치원,서울특별시 강서구 화곡로52길 14 (화곡동),,37.5500087,126.849063,서울특별시 강서구청,강서경찰서,Y,1,6,2019-08-28
"유치원",예일유치원,서울특별시 강서구 강서로47길 126,,37.5536597,126.8291829,서울특별시 강서구청,강서경찰서,Y,1,20,2019-08-28
"유치원",강서유치원,서울특별시 강서구 까치산로 116 (화곡동),,37.5481774,126.8500391,서울특별시 강서구청,강서경찰서,N,,,2019-08-28
"유치원",윤희유치원,서울특별시 강서구 강서로 216-23,,37.5457337666,126.837553992,서울특별시 강서구청,강서경찰서,N,,,2019-08-28
"유치원",예은유치원,서울특별시 강서구 화곡본동 까치산로4길 101-5,,37.538834,126.847243,서울특별시 강서구청,강서경찰서,N,,,2019-08-28
"어린이집",발산어린이집,서울특별시 강서구 우장산로 45 (내발산동),,37.554404,126.8421907,서울특별시 강서구청,강서경찰서,N,,,2019-08-28
"어린이집",프란체스코어린이집,서울특별시 강서구 방화대로5다길 22-12 (공항동),,37.5555119,126.8146107,서울특별시 강서구청,강서경찰서,N,,,2019-08-28
"어린이집",CEC어린이집,서울특별시 강서구 화곡로13길 66 (화곡동),,37.5427125,126.8330272,서울특별시 강서구청,강서경찰서,N,,,2019-08-28
"어린이집",으뜸어린이집,서울특별시 강서구 곰달래로53길 30-20 (화곡동),,37.533599,126.860173,서울특별시 강서구청,강서경찰서,N,,,2019-08-28
"어린이집",상아어린이집,서울특별시 강서구 강서로56가길 55 (등촌동),,37.562025,126.840249,서울특별시 강서구청,강서경찰서,N,,,2019-08-28
"어린이집",동산어린이집,서울특별시 강서구 양천로75길 44 (염창동),,37.551473,126.875539,서울특별시 강서구청,강서경찰서,N,,,2019-08-28
"어린이집",이레어린이집,서울특별시 강서구 금낭화로11길 48 (방화동),,37.569417,126.810033,서울특별시 강서구청,강서경찰서,N,,,2019-08-28
"어린이집",밤비니어린이집,서울특별시 강서구 남부순환로7길 39 (공항동),,37.558943,126.809662,서울특별시 강서구청,강서경찰서,N,,,2019-08-28
"특수학교",교남학교,서울특별시 강서구 까치산로22길 38 (화곡동),,37.5481125,126.8525400,서울특별시 강서구청,강서경찰서,N,,,2019-08-28
