"시설종류",대상시설명,소재지도로명주소,소재지지번주소,위도,경도,관리기관명,관할경찰서명,CCTV설치여부,CCTV설치대수,보호구역도로폭,데이터기준일자
"초등학교",남부초등학교,인천광역시 미추홀구 인주대로366번길 22(주안동),인천광역시 미추홀구 주안동 1444,37.450329,126.675874,인천광역시 미추홀구청,미추홀구경찰서,Y,3,6~7.5,2019-10-07
"초등학교",학익초등학교,인천광역시 미추홀구 한나루로403번길 122(학익동),인천광역시 미추홀구 학익동 330-1,37.44706352,126.6586383,인천광역시 미추홀구청,미추홀구경찰서,Y,3,5~20,2019-10-07
"초등학교",용현초등학교,인천광역시 미추홀구 낙섬동로 83(용현동),인천광역시 미추홀구 용현동 610-108,37.45318079,126.6408079,인천광역시 미추홀구청,미추홀구경찰서,Y,4,9~10,2019-10-07
"초등학교",주안초등학교,인천광역시 미추홀구 남주길69번길 16(주안동),인천광역시 미추홀구 주안동 1627,37.45465347,126.6738978,인천광역시 미추홀구청,미추홀구경찰서,Y,4,6~8,2019-10-07
"초등학교",도화초등학교,인천광역시 미추홀구 경인로 242(도화동),인천광역시 미추홀구 도화동 541-5,37.46314213,126.667843,인천광역시 미추홀구청,미추홀구경찰서,Y,1,30~37,2019-10-07
"초등학교",석암초등학교,인천광역시 미추홀구 주안동로 46(주안동),인천광역시 미추홀구 주안동 55-1,37.46235036,126.6867275,인천광역시 미추홀구청,미추홀구경찰서,Y,4,6~10,2019-10-07
"초등학교",연학초등학교,인천광역시 미추홀구 주승로 20(학익동),인천광역시 미추홀구 학익동 29-2,37.44356556,126.6719164,인천광역시 미추홀구청,미추홀구경찰서,Y,4,8~9,2019-10-07
"초등학교",백학초등학교,인천광역시 미추홀구 매소홀로446번길 25(학익동),인천광역시 미추홀구 학익동 674,37.43892004,126.6719502,인천광역시 미추홀구청,미추홀구경찰서,Y,4,6~20,2019-10-07
"초등학교",숭의초등학교,인천광역시 미추홀구 장천로 99(숭의동),인천광역시 미추홀구 숭의동 42-2,37.46372007,126.6557051,인천광역시 미추홀구청,미추홀구경찰서,Y,4,6~12,2019-10-07
"초등학교",문학초등학교,인천광역시 미추홀구 매소홀로 553(문학동),인천광역시 미추홀구 문학동 343-2,37.43989041,126.6828345,인천광역시 미추홀구청,미추홀구경찰서,Y,3,4.5~22,2019-10-07
"초등학교",승학초등학교,인천광역시 미추홀구 주승로 259(관교동),인천광역시 미추홀구 관교동 13-4,37.44040217,126.6965596,인천광역시 미추홀구청,미추홀구경찰서,Y,2,5~7,2019-10-07
"초등학교",서화초등학교,인천광역시 미추홀구 송림로 250(도화동),인천광역시 미추홀구 도화동 1003,37.4739847,126.6608131,인천광역시 미추홀구청,미추홀구경찰서,Y,3,6.5~30,2019-10-07
"초등학교",대화초등학교,인천광역시 미추홀구 석정로301번길 13(도화동),인천광역시 미추홀구 도화동 105-11,37.46901863,126.6685315,인천광역시 미추홀구청,미추홀구경찰서,Y,3,5~16,2019-10-07
"초등학교",용일초등학교,인천광역시 미추홀구 인주대로 244(용현동),인천광역시 미추홀구 용현동 74-1,37.45245069,126.6633606,인천광역시 미추홀구청,미추홀구경찰서,Y,3,4~22,2019-10-07
"초등학교",용정초등학교,인천광역시 미추홀구 독정안길 26(숭의동),인천광역시 미추홀구 숭의동 12-8,37.459404,126.657236,인천광역시 미추홀구청,미추홀구경찰서,Y,3,7~15,2019-10-07
"초등학교",용현남초등학교,인천광역시 미추홀구 매소홀로 133(용현동),인천광역시 미추홀구 용현동 627-449,37.44789356,126.6419587,인천광역시 미추홀구청,미추홀구경찰서,Y,4,8~15,2019-10-07
"초등학교",주안남초등학교,인천광역시 미추홀구 인주대로434번길 11(주안동),인천광역시 미추홀구 주안동 1503,37.44955505,126.6850043,인천광역시 미추홀구청,미추홀구경찰서,Y,3,6~15,2019-10-07
"초등학교",관교초등학교,인천광역시 미추홀구 인하로 414(관교동),인천광역시 미추홀구 관교동 334,37.44625619,126.6927795,인천광역시 미추홀구청,미추홀구경찰서,Y,3,8~12,2019-10-07
"초등학교",주안북초등학교,인천광역시 미추홀구 석정로375번길 14(주안동),인천광역시 미추홀구 주안동 14-1,37.468166,126.6780578,인천광역시 미추홀구청,미추홀구경찰서,Y,3,8~15,2019-10-07
"초등학교",인주초등학교,인천광역시 미추홀구 매소홀로475번길 53(학익동),인천광역시 미추홀구 학익동 40,37.44238844,126.673725,인천광역시 미추홀구청,미추홀구경찰서,Y,3,8,2019-10-07
"초등학교",학산초등학교,인천광역시 미추홀구 한나루로357번길 66(학익동),인천광역시 미추홀구 학익동 721-7,37.43982883,126.6581604,인천광역시 미추홀구청,미추홀구경찰서,Y,3,9~10,2019-10-07
"초등학교",경원초등학교,인천광역시 미추홀구 경인로 511(주안동),인천광역시 미추홀구 주안동 1620,37.46136485,126.6957696,인천광역시 미추홀구청,미추홀구경찰서,Y,2,7.5~25,2019-10-07
"초등학교",용학초등학교,인천광역시 미추홀구 용정공원로 33(용현동),인천광역시 미추홀구 용현동 604-1,37.45201513,126.6450629,인천광역시 미추홀구청,미추홀구경찰서,Y,2,15~20,2019-10-07
"유치원",부광 유치원,인천광역시 미추홀구 독정이로 80(숭의동),인천광역시 미추홀구 숭의동 201-9,37.462645,126.6516181,인천광역시 미추홀구청,미추홀구경찰서,Y,2,6~9,2019-10-07
"유치원",동원 유치원,인천광역시 미추홀구 인하로235번길 27(주안동),인천광역시 미추홀구 주안동 1420-32,37.44985375,126.674208,인천광역시 미추홀구청,미추홀구경찰서,Y,2,8~10,2019-10-07
"유치원",소라 유치원,인천광역시 미추홀구 경원대로 799(주안동),인천광역시 미추홀구 주안동 253-14,37.45413601,126.689181,인천광역시 미추홀구청,미추홀구경찰서,Y,1,25,2019-10-07
"유치원",인천 유치원,인천광역시 미추홀구 한나루로 566-1(주안동),인천광역시 미추홀구 주안동 602-4,37.456639,126.671125,인천광역시 미추홀구청,미추홀구경찰서,Y,2,20,2019-10-07
"유치원",미주 유치원,인천광역시 미추홀구 석정로461번길 19(주안동),인천광역시 미추홀구 주안동 19-42,37.467051,126.686555,인천광역시 미추홀구청,미추홀구경찰서,Y,1,11,2019-10-07
"유치원",이화 유치원,인천광역시 미추홀구 토금남로 32(용현동),인천광역시 미추홀구 용현동 619-3,37.451563,126.635644,인천광역시 미추홀구청,미추홀구경찰서,Y,1,9,2019-10-07
"유치원",세종 유치원,인천광역시 미추홀구 낙섬서로 77(용현동),인천광역시 미추홀구 용현동 624-77,37.455909,126.637612,인천광역시 미추홀구청,미추홀구경찰서,Y,1,8~9,2019-10-07
"유치원",연흥 유치원,인천광역시 미추홀구 석정로434번길 12(주안동),인천광역시 미추홀구 주안동 23-19,37.466043,126.683214,인천광역시 미추홀구청,미추홀구경찰서,Y,1,9,2019-10-07
"유치원",은아 유치원,인천광역시 미추홀구 매소홀로 490(학익동),인천광역시 미추홀구 학익동 666-1,37.43926461,126.676628,인천광역시 미추홀구청,미추홀구경찰서,Y,2,5~8,2019-10-07
"유치원",신동아 유치원,인천광역시 미추홀구 매소홀로 475번길 18(학익동),인천광역시 미추홀구 학익동 48-14,37.4410348,126.6755706,인천광역시 미추홀구청,미추홀구경찰서,Y,1,8~12,2019-10-07
"유치원",청파 유치원,인천광역시 미추홀구 낙섬동로 9 (용현동),인천광역시 미추홀구 용현동 627-40,37.44780567,126.6367787,인천광역시 미추홀구청,미추홀구경찰서,Y,1,9~12,2019-10-07
"유치원",성바오로유치원,인천광역시 미추홀구 경인남길102번길 50(용현동),인천광역시 미추홀구 용현동 183-15,37.452356,126.659843,인천광역시 미추홀구청,미추홀구경찰서,Y,2,7.5~10,2019-10-07
"유치원",해승 유치원,인천광역시 미추홀구 학익소로61번길 93(학익동),인천광역시 미추홀구 학익동 645,37.44289384,126.6753365,인천광역시 미추홀구청,미추홀구경찰서,Y,3,8~12,2019-10-07
"유치원",숭의 유치원,인천광역시 미추홀구 독배로 485(숭의동),인천광역시 미추홀구 숭의동 303-7,37.46065021,126.645054,인천광역시 미추홀구청,미추홀구경찰서,Y,1,18,2019-10-07
"유치원",진흥 유치원,인천광역시 미추홀구 주승로 109(주안동),인천광역시 미추홀구 주안동 1606,37.44543977,126.6825128,인천광역시 미추홀구청,미추홀구경찰서,Y,1,10,2019-10-07
"유치원",경기 유치원,인천광역시 미추홀구 인하로 319(주안동),인천광역시 미추홀구 주안동 1492-5,37.44813537,126.683761,인천광역시 미추홀구청,미추홀구경찰서,Y,1,8~17,2019-10-07
"유치원",다솜 유치원,인천광역시 미추홀구 학익소로23번길 11(학익동),인천광역시 미추홀구 학익동 15-5,37.445614,126.6698100336,인천광역시 미추홀구청,미추홀구경찰서,Y,1,4.5~11,2019-10-07
"유치원",소명 유치원,인천광역시 미추홀구 낙섬동로 71-1(용현동),인천광역시 미추홀구 용현동 611-75,37.452145,126.641033,인천광역시 미추홀구청,미추홀구경찰서,Y,1,9~11,2019-10-07
"유치원",노벨 유치원,인천광역시 미추홀구 낙섬중로 74(용현동),인천광역시 미추홀구 용현동 577-58,37.45421879,126.639674,인천광역시 미추홀구청,미추홀구경찰서,Y,1,8~9,2019-10-07
"유치원",관교 유치원,인천광역시 미추홀구 인주대로 442-1(주안동),인천광역시 미추홀구 주안동 1505-3,37.4507144,126.685917,인천광역시 미추홀구청,미추홀구경찰서,Y,1,15,2019-10-07
"유치원",용화 유치원,인천광역시 미추홀구 주염로 29(주안동),인천광역시 미추홀구 주안동 16-141,37.468146,126.6816302,인천광역시 미추홀구청,미추홀구경찰서,Y,1,13,2019-10-07
"유치원",반디 유치원,인천광역시 미추홀구 매소홀로 340(학익동),인천광역시 미추홀구 학익동 721,37.44042221,126.6614709,인천광역시 미추홀구청,미추홀구경찰서,Y,1,12,2019-10-07
"유치원",솔샘 유치원,인천광역시 미추홀구 석산로 38(주안동),인천광역시 미추홀구 주안동 1618,37.4618494,126.696396,인천광역시 미추홀구청,미추홀구경찰서,Y,1,10~12,2019-10-07
"유치원",참빛 유치원,인천광역시 미추홀구 수봉로135번길 29(주안동),인천광역시 미추홀구 주안동 660-168,37.458151,126.666007,인천광역시 미추홀구청,미추홀구경찰서,Y,1,5~15,2019-10-07
"유치원",그림나라 유치원,인천광역시 미추홀구 소성로332번길 10(문학동),인천광역시 미추홀구 문학동 374-3,37.437052,126.683816,인천광역시 미추홀구청,미추홀구경찰서,Y,2,8~9,2019-10-07
"유치원",재능 유치원,인천광역시 미추홀구 한나루로403번길 60-3(학익동),인천광역시 미추홀구 학익동 321-21,37.444901,126.661818,인천광역시 미추홀구청,미추홀구경찰서,Y,1,6,2019-10-07
"유치원",중앙유치원,인천광역시 미추홀구 수봉로129번길 13-11(주안동),인천광역시 미추홀구 주안동 660-4,37.45810504,126.6644926,인천광역시 미추홀구청,미추홀구경찰서,Y,1,8,2019-10-07
"유치원",이레유치원,인천광역시 미추홀구 경원대로652번길 19-15(관교동),인천광역시 미추홀구 관교동 394-9,37.44210377,126.693947,인천광역시 미추홀구청,미추홀구경찰서,Y,1,6~7,2019-10-07
"유치원",국현유치원,인천광역시 미추홀구 미추홀대로597번길 42(주안동),인천광역시 미추홀구 주안동 1446-8,37.45102252,126.6772103,인천광역시 미추홀구청,미추홀구경찰서,Y,1,8,2019-10-07
"유치원",건영유치원,인천광역시 미추홀구 인하로221번길 19(주안동),인천광역시 미추홀구 주안동 1418-126,37.4493495,126.672563,인천광역시 미추홀구청,미추홀구경찰서,Y,1,16,2019-10-07
"유치원",하늘유치원,인천광역시 미추홀구 미추홀대로626번길 47(주안동),인천광역시 미추홀구 주안동 1475-36,37.453325,126.682656,인천광역시 미추홀구청,미추홀구경찰서,N,0,7,2019-10-07
"유치원",프라임건영 유치원,인천광역시 미추홀구 남주길11번길 79(도화동),인천광역시 미추홀구 도화동 463-6,37.45760736,126.6720644,인천광역시 미추홀구청,미추홀구경찰서,N,0,6~8,2019-10-07
"유치원",유원유치원,인천광역시 미추홀구 남주길11번길 80(도화동),인천광역시 미추홀구 용현동 557-60,37.45736633,126.6722404,인천광역시 미추홀구청,미추홀구경찰서,N,0,6~9,2019-10-07
"어린이집",개나리 어린이집,인천광역시 미추홀구 재넘이길19번길 18(학익동),인천광역시 미추홀구 학익동 303-5,37.44672635,126.665511,인천광역시 미추홀구청,미추홀구경찰서,Y,1,6,2019-10-07
"어린이집",공작 어린이집,인천광역시 미추홀구 능해길 15-38(숭의동),인천광역시 미추홀구 용현동 686-33,37.459724,126.639259,인천광역시 미추홀구청,미추홀구경찰서,Y,1,4~10,2019-10-07
"어린이집",백암 어린이집,인천광역시 미추홀구 매소홀로418번길 14-57(학익동),인천광역시 미추홀구 학익동 686-8,37.4386403,126.6668303,인천광역시 미추홀구청,미추홀구경찰서,Y,2,6~8,2019-10-07
"어린이집",참빛 어린이집,인천광역시 미추홀구 독정이로54번길 24(숭의동),인천광역시 미추홀구 숭의동 248-77,37.46121707,126.653837,인천광역시 미추홀구청,미추홀구경찰서,Y,2,5,2019-10-07
"어린이집",한울타리 어린이집,인천광역시 미추홀구 주승로 94(주안동),인천광역시 미추홀구 주안동 1283-6,37.44467816,126.6807441,인천광역시 미추홀구청,미추홀구경찰서,Y,2,7~10,2019-10-07
"어린이집",무궁화 어린이집,인천광역시 미추홀구 인주대로503번길 76(주안동),인천광역시 미추홀구 주안동 1579-12,37.454193,126.692784,인천광역시 미추홀구청,미추홀구경찰서,Y,2,7~8,2019-10-07
"어린이집",별초롱 어린이집,인천광역시 미추홀구 신기길72번길 74(주안동),인천광역시 미추홀구 주안동 866-2,37.444724,126.672595,인천광역시 미추홀구청,미추홀구경찰서,Y,2,6~8,2019-10-07
"어린이집",애향 어린이집,인천광역시 미추홀구 석정로329번길 32(도화동),인천광역시 미추홀구 도화동 120-12,37.4689915,126.6717239,인천광역시 미추홀구청,미추홀구경찰서,Y,1,9,2019-10-07
"어린이집",삼성 어린이집,인천광역시 미추홀구 주안로160번길 67(주안동),인천광역시 미추홀구 주안동 992-6,37.4605099,126.687674,인천광역시 미추홀구청,미추홀구경찰서,Y,2,6~8,2019-10-07
"어린이집",밀알 어린이집,인천광역시 미추홀구 장고개로42번길 42(도화동),인천광역시 미추홀구 도화동 119-16,37.47005429,126.6689972,인천광역시 미추홀구청,미추홀구경찰서,Y,2,9,2019-10-07
"어린이집",용화 어린이집,인천광역시 미추홀구 주염로 29(주안동),인천광역시 미추홀구 주안동 16-141,37.468146,126.6816302,인천광역시 미추홀구청,미추홀구경찰서,Y,1,10,2019-10-07
"어린이집",공립제물포어린이집,인천광역시 미추홀구 석정로140번길 17(숭의동),인천광역시 미추홀구 숭의동 88-16,37.46802776,126.651079,인천광역시 미추홀구청,미추홀구경찰서,Y,1,6,2019-10-07
"어린이집",숲속실로암어린이집,인천광역시 미추홀구 수봉로33번길 102-86(도화동),인천광역시 미추홀구 도화동 624-236,37.462924,126.662019,인천광역시 미추홀구청,미추홀구경찰서,Y,1,6~9,2019-10-07
"어린이집",솔빛어린이집,인천광역시 미추홀구 인주대로503번길 22(주안동),인천광역시 미추홀구 주안동 1575-6,37.451722,126.692764,인천광역시 미추홀구청,미추홀구경찰서,Y,1,5,2019-10-07
"어린이집",호산나어린이집,인천광역시 미추홀구 동주길119번길 15-32(주안동),인천광역시 미추홀구 주안동 413-12,37.45590979,126.683951,인천광역시 미추홀구청,미추홀구경찰서,Y,1,4~6,2019-10-07
"어린이집",국현어린이집,인천광역시 미추홀구 미추홀대로614번길 60(주안동),인천광역시 미추홀구 주안동 1482,37.45173457,126.6833089,인천광역시 미추홀구청,미추홀구경찰서,Y,1,6.5~8,2019-10-07
"어린이집",피카소어린이집,인천광역시 미추홀구 낙섬서로18번길 13(용현동),인천광역시 미추홀구 용현동 627-150,37.451016,126.635068,인천광역시 미추홀구청,미추홀구경찰서,Y,1,6,2019-10-07
"어린이집",종달새어린이집,인천광역시 미추홀구 인하로47번길 92(용현동),인천광역시 미추홀구 용현동 181-1,37.45308246,126.6587903,인천광역시 미추홀구청,미추홀구경찰서,Y,1,8,2019-10-07
"어린이집",별하어린이집,인천광역시 미추홀구 한나루로490번길 93(주안동),인천광역시 미추홀구 주안동 1418-78,37.45030343,126.6726057,인천광역시 미추홀구청,미추홀구경찰서,Y,1,7.5~16,2019-10-07
"어린이집",예뜰어린이집,인천광역시 미추홀구 한나루로489번길 73(용현동),인천광역시 미추홀구 용현동 77-16,37.451626,126.663067,인천광역시 미추홀구청,미추홀구경찰서,Y,1,10,2019-10-07
"어린이집",꽃동네어린이집,인천광역시 미추홀구 문화로169번길 113(주안동),인천광역시 미추홀구 주안동 1580-29,37.45611308,126.6941045,인천광역시 미추홀구청,미추홀구경찰서,Y,1,10,2019-10-07
"어린이집",예은어린이집,인천광역시 미추홀구 토금중로51번길 7(용현동),인천광역시 미추홀구 용현동 611-45,37.4525204,126.639002,인천광역시 미추홀구청,미추홀구경찰서,Y,1,4~6,2019-10-07
"어린이집",민들레어린이집,인천광역시 미추홀구 낙섬중로94번길 4(용현동),인천광역시 미추홀구 용현동 558-1,37.4556248,126.6409634,인천광역시 미추홀구청,미추홀구경찰서,Y,1,4,2019-10-07
"어린이집",문학어린이집,인천광역시 미추홀구 문학길 136(문학동),인천광역시 미추홀구 문학동 400-1,37.434349,126.6848284,인천광역시 미추홀구청,미추홀구경찰서,Y,1,8~10,2019-10-07
"어린이집",성지어린이집,인천광역시 미추홀구 미추홀대로 498-15(주안동),인천광역시 미추홀구 주안동 1296,37.44203568,126.679139,인천광역시 미추홀구청,미추홀구경찰서,Y,1,10,2019-10-07
"어린이집",연지어린이집,인천광역시 미추홀구 석정로462번길 13(주안동),인천광역시 미추홀구 주안동 20-19,37.465439,126.686871,인천광역시 미추홀구청,미추홀구경찰서,Y,1,11,2019-10-07
"어린이집",예인아트어린이집,인천광역시 미추홀구 주안로50번길 30(도화동),인천광역시 미추홀구 도화동 409-3,37.462814,126.674727,인천광역시 미추홀구청,미추홀구경찰서,Y,1,6,2019-10-07
"어린이집",구립새이룸어린이집,인천광역시 미추홀구 주안로174번길 16(주안동),인천광역시 미추홀구 주안동 975-11,37.46282791,126.6887905,인천광역시 미추홀구청,미추홀구경찰서,Y,1,6,2019-10-07
"어린이집",해찬솔어린이집,인천광역시 미추홀구 경인로471번길 60(주안동),인천광역시 미추홀구 주안동 925-6,37.46123203,126.6918005,인천광역시 미추홀구청,미추홀구경찰서,Y,1,10,2019-10-07
"어린이집",하이얀어린이집,인천광역시 미추홀구 인하로 353(주안동),인천광역시 미추홀구 주안동 1528-12,37.448315,126.687612,인천광역시 미추홀구청,미추홀구경찰서,Y,1,8~20,2019-10-07
"어린이집",해나라어린이집,인천광역시 미추홀구 한나루로357번길 63-54(학익동),인천광역시 미추홀구 학익동 706-11,37.4389233,126.657834,인천광역시 미추홀구청,미추홀구경찰서,Y,1,6,2019-10-07
"어린이집",새싹어린이집,인천광역시 미추홀구 염창로 106(주안동),인천광역시 미추홀구 주안동 32-14,37.465044,126.685645,인천광역시 미추홀구청,미추홀구경찰서,Y,1,10,2019-10-07
"어린이집",파란색싹어린이집,인천광역시 미추홀구 경원대로834번길 3(주안동),인천광역시 미추홀구 주안동 1542-28,37.45720834,126.689813,인천광역시 미추홀구청,미추홀구경찰서,Y,1,8,2019-10-07
"어린이집",딩동댕어린이집,인천광역시 미추홀구 석정로10번길 70(숭의동),인천광역시 미추홀구 숭의동 309-35,37.459203,126.645514,인천광역시 미추홀구청,미추홀구경찰서,Y,1,15,2019-10-07
"어린이집",햇살어린이집,인천광역시 미추홀구 승학길 77-1(주안동),인천광역시 미추홀구 주안동 1301-3,37.44297709,126.6794269,인천광역시 미추홀구청,미추홀구경찰서,Y,1,8,2019-10-07
"어린이집",글로벌수어린이집,인천광역시 미추홀구 석정로252번길 23(도화동),인천광역시 미추홀구 도화동 102-4,37.467297,126.6637643,인천광역시 미추홀구청,미추홀구경찰서,Y,1,5,2019-10-07
"어린이집",영성어린이집,인천광역시 미추홀구 수봉안길35번길 7(숭의동),인천광역시 미추홀구 숭의동 5-55,37.462483,126.6597799,인천광역시 미추홀구청,미추홀구경찰서,Y,1,10,2019-10-07
"어린이집",미추홀구청어린이집,인천광역시 미추홀구 경인로70번길 24(숭의동),인천광역시 미추홀구 숭의동 199-12,37.464012,126.6510012,인천광역시 미추홀구청,미추홀구경찰서,Y,1,6~7,2019-10-07
"어린이집",은빛어린이집,인천광역시 미추홀구 소성로277번길 18(문학동),인천광역시 미추홀구 문학동 354-10,37.438145,126.678528,인천광역시 미추홀구청,미추홀구경찰서,N,0,6,2019-10-07
"학원",삼육외국어학원,인천광역시 미추홀구 경인로 154(숭의동),인천광역시 미추홀구 숭의동 1-5,37.46603083,126.659651,인천광역시 미추홀구청,미추홀구경찰서,Y,1,5~25,2019-10-07
"학원",예대음악학원,인천광역시 미추홀구 경원대로864번길 78(주안동),인천광역시 미추홀구 주안동 913-1,37.461413,126.693534,인천광역시 미추홀구청,미추홀구경찰서,Y,1,7.5~10.5,2019-10-07
